;SIGLA_UF_PV;NOME_MUNICIPIO_PV;NOTA_LINGUAGENS;NOTA_HUMANAS;NOTA_MATEMATICA;NOTA_NATUREZA;NOTA_REDAC;CIDADE/UF;LAT;LON
0;AC;Acrelândia;472.8205298013245;484.658940397351;495.9414285714286;450.8442857142857;558.6754966887418;Acrelândia, AC;-10.0759167;-67.0526898
1;AC;Brasiléia;489.36046511627904;486.7866279069768;504.3;473.3732919254659;575.9302325581396;Brasiléia, AC;-11.0010413;-68.7487894
2;AC;Cruzeiro do Sul;473.5673883626522;483.79201623815965;484.8781227436823;459.00216606498196;584.5737483085251;Cruzeiro do Sul, AC;-7.6307956;-72.6703869
3;AC;Epitaciolândia;483.65213675213676;493.43675213675215;491.69009900990096;471.2148514851485;572.3076923076923;Epitaciolândia, AC;-11.0289439;-68.7411519
4;AC;Feijó;477.6275167785235;488.6234899328859;487.3282608695652;456.9594202898551;576.1073825503356;Feijó, AC;-8.1648652;-70.3539579
5;AC;Jordão;425.8666666666667;458.93888888888887;472.52941176470586;444.90588235294115;544.4444444444445;Jordão, AC;-9.1911406;-71.9481397
6;AC;Marechal Thaumaturgo;441.9045454545454;461.0318181818182;450.15348837209297;441.78837209302327;543.1818181818181;Marechal Thaumaturgo, AC;-8.9479792;-72.7872614
7;AC;Mâncio Lima;452.95863874345554;463.782722513089;469.35;450.75352941176476;582.6178010471205;Mâncio Lima, AC;-7.6145911;-72.905264
8;AC;Plácido de Castro;458.21379310344827;466.2977011494253;483.57951807228915;451.3240963855422;549.4252873563219;Plácido de Castro, AC;-10.3239154;-67.1824196
9;AC;Porto Acre;465.1635416666666;489.309375;473.1417582417583;447.45054945054943;552.9166666666666;Porto Acre, AC;-9.5879722;-67.53307
10;AC;Porto Walter;446.7897435897436;462.79487179487177;455.9714285714286;445.7257142857143;564.1025641025641;Porto Walter, AC;-8.2687722;-72.7444458
11;AC;Rio Branco;490.0488998652896;502.09284538242775;503.7016469459546;474.34250079948833;599.8323604250861;Rio Branco, AC;-9.9765362;-67.8220778
12;AC;Santa Rosa do Purus;383.2625;433.36249999999995;421.325;427.4125;442.5;Santa Rosa do Purus, AC;-9.4354872;-70.4926109
13;AC;Sena Madureira;473.8010452961672;484.90662020905927;484.93768115942026;456.5083333333333;585.993031358885;Sena Madureira, AC;-9.0659556;-68.6571058
14;AC;Senador Guiomard;469.04581673306774;486.4003984063745;491.94769874476987;458.1794979079498;559.9203187250996;Senador Guiomard, AC;-9.9765;-67.31913961038961
15;AC;Tarauacá;461.8086330935252;474.66978417266193;480.7143968871596;445.21789883268485;568.4172661870504;Tarauacá, AC;-8.1602019;-70.7665368
16;AC;Xapuri;479.7509259259259;500.44074074074075;504.606;483.89;571.8518518518518;Xapuri, AC;-10.6511174;-68.5017902
17;AL;Arapiraca;493.7589947691607;512.6158289743006;533.5714591254754;485.54032794676806;642.3061178075961;Arapiraca, AL;-9.754866;-36.661471
18;AL;Atalaia;463.9327659574468;479.17659574468087;485.1235294117647;451.3556561085973;575.1489361702128;Atalaia, AL;-23.1513833;-52.0529697
19;AL;Batalha;455.0294382022472;472.9060674157304;489.68782201405156;457.40281030444964;586.9662921348314;Batalha, AL;-9.6733809;-37.1265481
20;AL;Boca da Mata;466.4269720101781;481.00508905852416;499.6323684210526;462.1721052631579;606.6157760814249;Boca da Mata, AL;-9.6452054;-36.2116658
21;AL;Campo Alegre;469.0198198198198;480.10743243243246;500.8153669724771;464.8506880733945;624.1441441441441;Campo Alegre, AL;-26.1941684;-49.2657484
22;AL;Coruripe;466.5200371057514;474.73543599257886;496.69709302325583;459.8236434108527;588.3487940630798;Coruripe, AL;-10.1249963;-36.1760623
23;AL;Delmiro Gouveia;469.3883472057075;484.04661117717006;496.4686419753086;461.92419753086415;582.30677764566;Delmiro Gouveia, AL;-9.3841161;-37.997756
24;AL;Girau do Ponciano;458.328431372549;480.91127450980395;489.76406779661016;460.662033898305;617.7124183006536;Girau do Ponciano, AL;-9.884041;-36.831592
25;AL;Igaci;456.67014388489207;479.8262589928058;492.22996254681647;463.8426966292135;595.7553956834532;Igaci, AL;-9.537678;-36.637191
26;AL;Maceió;501.77337505214854;518.8206007509388;539.6477464788733;490.2804137323944;639.9482686691698;Maceió, AL;-9.6476843;-35.7339264
27;AL;Marechal Deodoro;486.11275510204086;499.9956632653061;509.66037735849056;469.3708894878706;581.5816326530612;Marechal Deodoro, AL;-9.709715;-35.896731
28;AL;Olho d'Água das Flores;463.6086206896552;473.0733990147783;485.7793281653747;457.0948320413437;573.7931034482758;Olho d'Água das Flores, AL;-9.5318374;-37.2939052
29;AL;Palmeira dos Índios;475.9291569992266;492.16906419180197;512.1202076677316;473.1584664536741;630.9048723897912;Palmeira dos Índios, AL;-9.4076249;-36.6323616
30;AL;Penedo;476.55739130434785;489.8;504.97338501291995;468.74573643410855;595.9254658385094;Penedo, AL;-10.2872341;-36.5819262
31;AL;Pilar;462.8862745098039;474.9546840958606;482.47664399092974;456.2324263038549;582.7450980392157;Pilar, AL;-9.6016711;-35.9511275
32;AL;Porto Calvo;464.51241050119336;477.69379474940337;496.1749385749386;455.6260442260442;569.928400954654;Porto Calvo, AL;-9.051948;-35.398653
33;AL;Rio Largo;471.7799791449427;482.515015641293;497.931798245614;460.3563596491228;581.7935349322211;Rio Largo, AL;-9.477829;-35.839435
34;AL;Santana do Ipanema;474.28514851485147;489.9783592644979;503.9610194902549;469.18485757121437;612.7581329561527;Santana do Ipanema, AL;-9.369989;-37.248018
35;AL;São José da Tapera;465.74821428571425;486.972619047619;494.2594512195122;463.3158536585366;592.3809523809524;São José da Tapera, AL;-9.5584287;-37.3818893
36;AL;São Luís do Quitunde;453.93613963039013;469.3285420944558;472.4828326180257;446.1935622317597;568.993839835729;São Luís do Quitunde, AL;-9.3181755;-35.5605097
37;AL;São Miguel dos Campos;474.4807901907357;481.7689373297003;504.40651230101304;461.3557163531114;618.1471389645776;São Miguel dos Campos, AL;-9.7831115;-36.0967804
38;AL;Teotônio Vilela;474.7638709677419;484.7527741935484;501.8434782608696;465.8642663043478;645.083870967742;Teotônio Vilela, AL;-9.9062736;-36.3571341
39;AL;Traipu;452.80833333333334;477.18630952380954;496.660736196319;454.99754601227;600.7142857142857;Traipu, AL;-9.967583;-37.0015357
40;AL;União dos Palmares;465.1197614991482;481.35732538330495;496.08480565371025;458.3056537102473;586.984667802385;União dos Palmares, AL;-9.1576807;-36.0342251
41;AL;Viçosa;463.0582938388626;480.150710900474;482.67133443163095;451.7848434925865;589.1943127962086;Viçosa, AL;-9.3728032;-36.2432636
42;AL;Água Branca;458.7664285714286;476.24678571428575;492.18988764044946;455.4625468164794;569.1428571428571;Água Branca, AL;-9.2613606;-37.9361053
43;AM;Alvarães;417.8067567567568;442.3682432432432;446.38947368421054;423.41578947368424;475.0;Alvarães, AM;-3.214786;-64.8143124
44;AM;Anamã;433.8297297297297;444.80810810810806;466.21176470588233;430.8858823529412;433.5135135135135;Anamã, AM;-3.5797356;-61.4049996
45;AM;Anori;435.84424778761064;445.7867256637168;455.6821782178218;440.69108910891094;518.4070796460177;Anori, AM;-3.7435254;-61.6605203
46;AM;Apuí;462.1560606060606;479.2590909090909;493.40327868852455;448.71475409836063;500.6060606060606;Apuí, AM;-7.1940195;-59.8830192
47;AM;Autazes;430.32556053811663;442.25291479820623;450.363829787234;429.13457446808513;473.1838565022422;Autazes, AM;-3.5833283;-59.1301518
48;AM;Barcelos;454.21588785046725;475.5495327102804;465.08019801980197;447.0831683168317;534.5794392523364;Barcelos, AM;-0.9729214;-62.925635
49;AM;Barreirinha;433.43890577507597;454.88571428571424;444.84791666666666;437.48784722222223;488.8753799392097;Barreirinha, AM;-2.798863;-57.067897
50;AM;Benjamin Constant;413.3379603399433;431.8475920679887;436.40273556231006;422.6975683890578;423.9660056657224;Benjamin Constant, AM;-4.3782748;-70.0290603
51;AM;Beruri;430.9372340425532;447.386170212766;463.46741573033705;434.86179775280897;503.1914893617021;Beruri, AM;-3.9007135;-61.3717319
52;AM;Boa Vista do Ramos;429.14438502673795;438.7978609625668;446.6869047619047;429.7446428571429;463.3155080213904;Boa Vista do Ramos, AM;-2.9716927;-57.5869819
53;AM;Boca do Acre;469.91409090909093;469.48636363636365;488.63853658536584;452.7258536585366;537.8181818181819;Boca do Acre, AM;-8.7553487;-67.3930873
54;AM;Borba;421.1976923076923;439.05307692307696;451.06140350877195;421.5605263157895;475.53846153846155;Borba, AM;-4.3934778;-59.5947721
55;AM;Caapiranga;421.56666666666666;428.8575757575757;450.14074074074074;420.4703703703704;386.06060606060606;Caapiranga, AM;-3.3188884;-61.2096404
56;AM;Canutama;426.46101694915257;435.6593220338983;465.5224489795918;426.33673469387753;479.3220338983051;Canutama, AM;-6.5330019;-64.3834966
57;AM;Carauari;435.7379487179487;439.6933333333333;463.11479289940826;431.75917159763316;529.7435897435897;Carauari, AM;-4.8766426;-66.8961433
58;AM;Careiro;439.14971428571425;452.56399999999996;463.4192857142857;443.4642857142857;475.3142857142857;Careiro, AM;-3.8185277;-60.3616505
59;AM;Careiro da Várzea;429.22585034013605;437.67619047619047;450.7297709923664;430.1396946564886;456.4625850340136;Careiro da Várzea, AM;-3.197024;-59.8259104
60;AM;Coari;439.6552217453505;449.43905579399143;459.2475894245723;442.347900466563;502.60371959942773;Coari, AM;-4.0885957;-63.1431166
61;AM;Codajás;432.6047904191617;445.72275449101795;452.58618421052637;432.928947368421;484.311377245509;Codajás, AM;-3.8413202;-62.0603444
62;AM;Eirunepé;442.3362204724409;460.62244094488193;473.73842794759827;446.7183406113537;511.496062992126;Eirunepé, AM;-6.6567654;-69.866161
63;AM;Envira;427.5632075471698;451.6339622641509;457.39696969696973;427.43333333333334;524.9056603773585;Envira, AM;-7.437889;-70.028143
64;AM;Fonte Boa;413.6896103896104;446.6363636363636;446.08516129032256;429.91161290322583;487.012987012987;Fonte Boa, AM;-2.55;-66.91321428571428
65;AM;Humaitá;450.98991769547325;462.70637860082303;466.77097505668934;447.4426303854876;499.79423868312756;Humaitá, AM;-7.5099404;-63.0248674
66;AM;Ipixuna;435.58513513513515;447.4013513513513;462.72615384615386;446.87384615384616;515.1351351351351;Ipixuna, AM;-7.047909;-71.693426
67;AM;Iranduba;445.39382422802845;467.56318289786225;469.2457671957672;443.38042328042326;489.07363420427555;Iranduba, AM;-3.2758203;-60.1867429
68;AM;Itacoatiara;449.936850921273;465.0675041876047;463.2098148148148;444.175;511.8425460636516;Itacoatiara, AM;-3.1477898;-58.4461041
69;AM;Itamarati;396.74603174603175;416.5095238095238;441.96000000000004;440.73111111111115;423.8095238095238;Itamarati, AM;-6.4385189;-68.2437385
70;AM;Japurá;402.78266666666667;427.308;444.3731343283582;415.8492537313433;263.2;Japurá, AM;-1.8808468;-66.9967657
71;AM;Jutaí;432.106976744186;442.9186046511628;452.5197183098592;434.72957746478875;423.25581395348837;Jutaí, AM;-2.7471478;-66.7721255
72;AM;Lábrea;446.3969230769231;454.66576923076923;464.11745283018865;445.05283018867925;467.9230769230769;Lábrea, AM;-7.2613683;-64.7924505
73;AM;Manacapuru;455.23907766990294;462.6057038834951;470.2627476882431;446.18507265521794;503.08252427184465;Manacapuru, AM;-3.2996768;-60.6213528
74;AM;Manaquiri;426.7546391752577;440.9381443298969;447.48674698795185;432.75421686746984;479.7938144329897;Manaquiri, AM;-3.4305885;-60.4593078
75;AM;Manaus;484.13068335319826;493.0540484704013;501.281629610139;468.96042187431476;559.6789829161701;Manaus, AM;-3.1316333;-59.9825041
76;AM;Manicoré;455.1607407407408;468.15259259259255;462.392;448.9552;504.8888888888889;Manicoré, AM;-5.804618;-61.289483
77;AM;Maraã;420.696551724138;428.12068965517244;442.58750000000003;431.7625;418.2758620689655;Maraã, AM;-1.8535579;-65.5897749
78;AM;Maués;457.51523178807946;472.6586092715232;464.88510638297873;446.10283687943263;522.7814569536424;Maués, AM;-3.3795798;-57.7196072
79;AM;Nhamundá;432.3875370919881;451.0839762611276;452.74855305466235;439.435691318328;502.9080118694362;Nhamundá, AM;-2.1921521;-56.7111308
80;AM;Nova Olinda do Norte;419.74375000000003;432.2299107142857;444.4979381443299;420.45103092783506;465.7142857142857;Nova Olinda do Norte, AM;-3.8926889;-59.0953046
81;AM;Novo Airão;441.2217391304348;450.3833333333333;451.39166666666665;434.77166666666665;504.7826086956522;Novo Airão, AM;-2.6260236;-60.9434406
82;AM;Novo Aripuanã;432.86507936507934;443.0484126984127;446.9558558558558;426.6306306306306;433.3333333333333;Novo Aripuanã, AM;-5.125929;-60.373179
83;AM;Parintins;453.4839035333707;470.3521592821088;468.3866467065868;449.2017964071856;513.9652271452608;Parintins, AM;-2.6344567;-56.7319324
84;AM;Pauini;408.9824175824176;433.09999999999997;447.3671052631579;422.0157894736842;366.3736263736264;Pauini, AM;-7.7122214;-66.9998441
85;AM;Presidente Figueiredo;461.45451127819547;466.7605263157895;482.7336170212766;453.63106382978725;521.578947368421;Presidente Figueiredo, AM;-2.0486359;-60.0236658
86;AM;Rio Preto da Eva;431.14113924050633;453.47088607594935;459.8427586206896;435.468275862069;503.7974683544304;Rio Preto da Eva, AM;-2.6990647;-59.7012494
87;AM;Santa Isabel do Rio Negro;439.0395833333334;444.8041666666666;444.6918918918918;433.4783783783784;442.5;Santa Isabel do Rio Negro, AM;-0.4160389;-65.0153096
88;AM;Santo Antônio do Içá;413.1096153846154;437.5120192307692;439.0735449735449;421.8915343915344;427.40384615384613;Santo Antônio do Içá, AM;-3.095443;-67.946279
89;AM;Silves;415.99817351598176;433.2141552511415;459.3474489795919;426.8525510204082;386.4840182648402;Silves, AM;-2.8372614;-58.2105199
90;AM;São Gabriel da Cachoeira;449.70077519379845;468.5418604651163;454.7515283842795;441.28864628820963;496.6666666666667;São Gabriel da Cachoeira, AM;-0.1249715;-67.0813855
91;AM;São Paulo de Olivença;436.4157894736842;451.968016194332;446.80131004366814;430.1148471615721;471.6599190283401;São Paulo de Olivença, AM;-3.4650627;-68.9468462
92;AM;Tabatinga;438.9512064343163;452.45227882037534;454.4521739130435;435.6133540372671;443.5924932975871;Tabatinga, AM;-4.2327349;-69.9263372
93;AM;Tapauá;438.34878048780485;451.3085365853659;454.78;441.08666666666664;532.6829268292682;Tapauá, AM;-5.6232283;-63.1879157
94;AM;Tefé;448.1241935483871;461.3659274193548;472.9325221238938;445.16769911504423;518.4677419354839;Tefé, AM;-3.3485276;-64.7102278
95;AM;Tonantins;420.0586666666667;435.2213333333333;433.78840579710146;418.1666666666667;411.2;Tonantins, AM;-2.86261;-67.7735482
96;AM;Uarini;406.3776315789474;425.71578947368425;440.98333333333335;425.39500000000004;330.2631578947368;Uarini, AM;-2.9827061;-65.1578615
97;AM;Urucará;426.54771784232366;434.9908713692946;441.1785087719298;424.9657894736842;470.8713692946058;Urucará, AM;-2.537073;-57.7590254
98;AM;Urucurituba;422.1528169014084;441.5661971830986;440.5875;434.7033333333333;458.3098591549296;Urucurituba, AM;-3.1304332;-58.1549157
99;AP;Amapá;425.340206185567;467.69278350515464;455.3044943820225;440.81011235955054;549.0721649484536;Amapá, AP;2.0529997;-50.7930003
100;AP;Laranjal do Jari;456.56287553648065;474.9791845493562;471.1948598130841;452.9193925233645;551.7167381974249;Laranjal do Jari, AP;-0.8419994;-52.516
101;AP;Macapá;479.0776860660324;497.24986010072746;499.1775924256087;470.02088969041176;591.3682148852826;Macapá, AP;0.0401529;-51.0569588
102;AP;Mazagão;436.45955056179776;460.4191011235955;454.0710843373494;439.2192771084337;511.0112359550562;Mazagão, AP;-0.1160565;-51.2861759
103;AP;Oiapoque;436.39845360824745;448.21546391752577;454.12320441988953;436.0220994475138;502.16494845360825;Oiapoque, AP;3.8432128;-51.8350798
104;AP;Porto Grande;445.9258706467662;463.16069651741293;467.52099447513814;444.75469613259673;545.0746268656717;Porto Grande, AP;0.7028371;-51.4041605
105;AP;Santana;470.73167701863355;488.62444946357994;489.58060975609754;462.52457317073174;576.1942405420666;Santana, AP;-0.0307068;-51.1789666
106;AP;Tartarugalzinho;441.37636363636364;456.4309090909091;471.3734693877551;443.130612244898;535.2727272727273;Tartarugalzinho, AP;1.5052391;-50.9123126
107;BA;Alagoinhas;492.329698630137;505.2197808219178;512.5854661262305;484.8816444701795;596.9424657534247;Alagoinhas, BA;-12.133526;-38.420772
108;BA;Amargosa;480.4081989247312;496.1623655913978;498.4885106382979;471.2802836879432;592.8494623655914;Amargosa, BA;-13.0302189;-39.6040692
109;BA;Amélia Rodrigues;482.8818493150685;489.4349315068493;497.66906474820144;467.9708633093525;593.4246575342465;Amélia Rodrigues, BA;-12.4015388;-38.7516971
110;BA;Anagé;454.2365313653137;478.6376383763838;484.7813688212928;454.85627376425856;572.0295202952029;Anagé, BA;-14.6134669;-41.1376308
111;BA;Araci;470.6523333333334;487.51266666666663;490.54249999999996;471.4010714285714;617.4;Araci, BA;-11.3356065;-38.9573261
112;BA;Baixa Grande;473.363829787234;493.86548463356974;505.63025;468.34975;607.8959810874704;Baixa Grande, BA;-11.9630941;-40.1657537
113;BA;Barra;458.3448770491803;468.3600409836066;472.32262156448206;450.7093023255814;575.2049180327868;Barra, BA;-11.0892702;-43.1420453
114;BA;Barra da Estiva;474.9140145985401;493.0718248175183;508.7090490797546;471.52392638036804;605.051094890511;Barra da Estiva, BA;-13.6269662;-41.3278287
115;BA;Barra do Choça;472.0230769230769;485.76153846153846;497.41072796934867;462.6605363984674;595.7509157509157;Barra do Choça, BA;-14.8638173;-40.5761637
116;BA;Barreiras;488.87801031240525;506.48425841674253;520.2157742866303;486.5890990702148;644.8832271762208;Barreiras, BA;-12.1440031;-44.9967406
117;BA;Bom Jesus da Lapa;478.4387837837838;494.1702702702703;511.6156779661017;475.3837570621469;606.3513513513514;Bom Jesus da Lapa, BA;-13.250571;-43.410754
118;BA;Boquira;457.7063063063063;480.4108108108108;497.5394366197183;464.72159624413143;621.081081081081;Boquira, BA;-12.8184859;-42.7270883
119;BA;Brejões;463.33875;483.07875;481.19006622516554;454.8158940397351;568.25;Brejões, BA;-13.1033754;-39.7909837
120;BA;Brotas de Macaúbas;469.50510948905105;488.24598540145985;499.01875;461.82890625;608.3211678832117;Brotas de Macaúbas, BA;-12.0019007;-42.6257506
121;BA;Brumado;491.11075069508803;509.6437442075996;529.8528265107212;486.17076023391814;628.4151992585728;Brumado, BA;-14.2950215;-41.659239732941316
122;BA;Buerarema;467.20939226519334;487.83425414364643;481.6211764705883;462.8388235294118;582.0994475138122;Buerarema, BA;-14.9571177;-39.3008035
123;BA;Cachoeira;459.7861056751468;478.73228962818007;479.01174089068826;453.1781376518219;551.9373776908024;Cachoeira, BA;-12.5998256;-38.9665918
124;BA;Caculé;480.2057050592034;502.87739504843915;520.0600882028666;481.7371554575523;638.5575888051668;Caculé, BA;-14.4990734;-42.2233006
125;BA;Caetité;484.1772539288669;506.57733664185275;523.7030769230769;476.89786324786326;650.4880066170389;Caetité, BA;-14.0691776;-42.4852428
126;BA;Camacan;469.2707983193277;482.31050420168066;491.83437499999997;459.52834821428576;588.3193277310925;Camacan, BA;-15.4166631;-39.4930088
127;BA;Camamu;459.815014164306;476.10623229461754;482.5290801186943;455.8578635014837;549.2351274787535;Camamu, BA;-13.9438142;-39.1060917
128;BA;Camaçari;492.4036641929499;503.039332096475;505.93743842364535;475.0481280788177;588.4322820037106;Camaçari, BA;-12.6998188;-38.3260762
129;BA;Campo Alegre de Lourdes;446.9195804195804;457.4573426573427;484.3610294117648;447.1419117647059;559.3006993006993;Campo Alegre de Lourdes, BA;-9.5160326;-43.0101338
130;BA;Campo Formoso;474.79695550351283;494.8975409836066;505.60049689440996;472.9064596273292;602.7166276346604;Campo Formoso, BA;-10.51055;-40.320031
131;BA;Canarana;466.47053571428575;475.7806547619047;498.6481727574751;461.34584717607976;598.6309523809524;Canarana, BA;-11.6870151;-41.7683675
132;BA;Canavieiras;490.6444866920152;508.5916349809886;503.9791836734694;469.73061224489794;585.0190114068441;Canavieiras, BA;-15.6790128;-38.9449622
133;BA;Candeias;479.44234016887816;490.9108564535585;496.76776649746193;465.6513959390863;577.925211097708;Candeias, BA;-12.6693806;-38.5406462
134;BA;Cansanção;465.1194312796208;467.10142180094783;474.27099999999996;457.24800000000005;581.4218009478673;Cansanção, BA;-10.6671448;-39.498199
135;BA;Capim Grosso;479.71859375;492.34640625000003;501.1243377483443;466.4341059602649;592.71875;Capim Grosso, BA;-11.3793228;-40.0112095
136;BA;Caravelas;476.2008;490.6184;486.93274336283184;465.75486725663717;561.92;Caravelas, BA;-17.7296514;-39.2660082
137;BA;Carinhanha;446.0255263157895;460.80210526315784;476.00977653631287;451.00027932960893;564.1052631578947;Carinhanha, BA;-14.298524;-43.772349
138;BA;Casa Nova;462.93860589812334;477.001072386059;498.81802325581396;461.22994186046515;583.5924932975871;Casa Nova, BA;-9.1736775;-40.9734475
139;BA;Castro Alves;466.96761363636364;487.20340909090913;491.5271386430679;458.86961651917403;557.0454545454545;Castro Alves, BA;-12.7616941;-39.4281088
140;BA;Catu;495.32622377622374;509.36136363636365;518.4813405797101;485.3827898550724;621.5034965034965;Catu, BA;-12.351274;-38.379108
141;BA;Coaraci;477.443795620438;489.07481751824815;498.8637404580153;470.3171755725191;608.3941605839416;Coaraci, BA;-14.6407979;-39.5496765
142;BA;Cocos;458.30938271604936;473.4434567901235;492.17410256410255;458.2592307692308;574.3703703703703;Cocos, BA;-14.1811222;-44.5382117
143;BA;Conceição da Feira;475.38843930635835;490.921387283237;497.08869047619044;468.7333333333333;590.0578034682081;Conceição da Feira, BA;-12.5013001;-39.0002166
144;BA;Conceição do Coité;488.9044548651817;511.2604923798359;520.3853416149068;485.29093167701865;618.3118405627198;Conceição do Coité, BA;-11.5629384;-39.2839543
145;BA;Conceição do Jacuípe;484.6479809976247;501.50498812351543;501.13828715365236;475.44483627204033;594.8218527315914;Conceição do Jacuípe, BA;-12.326831;-38.768433
146;BA;Coração de Maria;464.9722448979592;477.5644897959184;489.1351931330472;458.7240343347639;602.6938775510204;Coração de Maria, BA;-12.2484345;-38.7499274
147;BA;Cordeiros;480.86024096385546;498.14789156626506;512.911801242236;476.7298136645963;610.722891566265;Cordeiros, BA;-15.0397219;-41.9314228
148;BA;Correntina;463.6825657894737;484.1506578947368;496.11830508474577;473.6552542372881;589.8684210526316;Correntina, BA;-13.344157;-44.6345066
149;BA;Cruz das Almas;476.304932735426;494.2971300448431;505.5948453608247;475.77703842549204;591.5695067264573;Cruz das Almas, BA;-12.6722649;-39.1053665
150;BA;Curaçá;468.16920152091257;477.1555133079848;502.71666666666664;460.98583333333335;572.3954372623574;Curaçá, BA;-8.9925655;-39.9053169
151;BA;Cândido Sales;469.06622807017544;486.025;503.72599531615924;467.1161592505855;589.9561403508771;Cândido Sales, BA;-15.5037649;-41.2391141
152;BA;Cícero Dantas;479.2904306220095;493.6741626794259;505.7283582089552;470.4336650082919;596.4912280701755;Cícero Dantas, BA;-10.5932265;-38.3834411
153;BA;Dias d'Ávila;490.3933202357564;510.1840864440079;505.710460251046;474.8117154811716;577.4852652259332;Dias d'Ávila, BA;-12.6107233;-38.3028518
154;BA;Entre Rios;465.08539603960395;479.45;479.90346666666665;457.8093333333333;549.1584158415842;Entre Rios, BA;-11.9423743;-38.0836985
155;BA;Esplanada;461.6466321243524;470.3516407599309;477.74000000000007;455.6460714285714;566.5284974093264;Esplanada, BA;-11.800614;-37.9453
156;BA;Euclides da Cunha;475.32832618025753;489.39885550786835;488.0273273273273;458.39834834834835;578.9127324749643;Euclides da Cunha, BA;-10.5060835;-39.0129875
157;BA;Eunápolis;498.6619402985075;508.5295190713101;517.8041740674955;481.5240674955595;613.2504145936982;Eunápolis, BA;-16.3722412;-39.575704
158;BA;Feira de Santana;502.2301289851546;516.8569968362132;531.0790148794254;491.72065161621344;634.9136042832806;Feira de Santana, BA;-12.2578934;-38.9598047
159;BA;Formosa do Rio Preto;445.618339100346;465.08408304498266;473.7138059701493;453.3488805970149;552.80276816609;Formosa do Rio Preto, BA;-11.0414544;-45.1903983
160;BA;Gandu;469.94126040428057;480.9392390011891;490.7753731343284;458.57562189054727;593.4126040428062;Gandu, BA;-13.7448138;-39.4844732
161;BA;Governador Mangabeira;461.2725239616613;483.79105431309904;488.57491961414786;465.9331189710611;587.923322683706;Governador Mangabeira, BA;-12.6038648;-39.0372154
162;BA;Guanambi;484.27868852459017;503.2535197685632;522.6577059120768;481.93799898938863;638.1388621022179;Guanambi, BA;-14.223066;-42.779943
163;BA;Ibicaraí;472.84692737430163;473.58901303538175;488.74330097087375;456.71747572815536;597.9143389199255;Ibicaraí, BA;-14.8625311;-39.5890865
164;BA;Ibititá;470.7421333333333;491.7282666666667;508.0155988857939;467.98941504178276;607.1466666666666;Ibititá, BA;-11.5461033;-41.9781838
165;BA;Ibotirama;454.4545861297539;474.0026845637584;497.53833333333336;460.36285714285714;582.7293064876958;Ibotirama, BA;-12.1829519;-43.2181138
166;BA;Ilhéus;498.6915524104379;510.71287041132246;521.7922968529826;486.0013621418506;622.9986731534719;Ilhéus, BA;-14.792599;-39.0453843
167;BA;Inhambupe;459.3413605442177;473.7572789115646;474.47642163661584;456.3908460471567;578.8843537414966;Inhambupe, BA;-11.7921718;-38.3596957
168;BA;Ipiaú;477.75343698854334;491.3705400981997;500.1147134302823;470.37014542343877;603.1587561374795;Ipiaú, BA;-14.1318211;-39.7373177
169;BA;Ipirá;467.32727272727277;487.81093366093364;496.5174418604651;461.72661498708015;604.1031941031941;Ipirá, BA;-12.1578337;-39.7416605
170;BA;Iraquara;472.42047244094493;482.694750656168;501.29201101928373;464.7595041322314;606.1942257217847;Iraquara, BA;-12.2439075;-41.6169181
171;BA;Irará;462.4278382581648;473.6578538102644;474.6787928221859;460.67128874388254;576.547433903577;Irará, BA;-12.0420271;-38.7635638
172;BA;Irecê;504.420653907496;527.0651515151515;544.9426579163248;495.34495488105006;666.6507177033493;Irecê, BA;-11.3034965;-41.8557929
173;BA;Itabela;461.3149425287356;480.21896551724143;483.85609756097557;454.65792682926826;591.4942528735633;Itabela, BA;-16.5743392;-39.561961
174;BA;Itaberaba;480.06380316930773;490.24278565471224;497.4546946216956;468.6763901549681;593.9949958298582;Itaberaba, BA;-12.524182;-40.305897
175;BA;Itabuna;502.0895825637237;517.6084226080532;523.0615504479938;490.4241527074406;631.222755818249;Itabuna, BA;-14.7935179;-39.274318
176;BA;Itajuípe;489.7036585365854;503.0040650406504;503.03983050847455;473.581779661017;622.6016260162602;Itajuípe, BA;-14.6744381;-39.3759427
177;BA;Itamaraju;480.04319852941177;498.12279411764706;509.41953125;468.3396484375;596.5441176470588;Itamaraju, BA;-17.0363103;-39.527994
178;BA;Itambé;472.9263440860215;490.11344086021506;494.735632183908;466.87528735632185;602.3655913978495;Itambé, BA;-15.2435245;-40.6269506
179;BA;Itanhém;486.65686274509807;507.6303921568628;503.50957446808513;485.1351063829787;666.2745098039215;Itanhém, BA;-17.1665806;-40.3291027
180;BA;Itaparica;486.4268292682927;499.1615853658537;510.0535483870968;477.4483870967742;599.5121951219512;Itaparica, BA;-12.8936023;-38.6798141
181;BA;Itapetinga;483.6494186046512;495.7240863787376;507.9597197898424;473.4670753064799;615.9468438538206;Itapetinga, BA;-15.2454478;-40.2460053
182;BA;Ituberá;464.33716475095787;479.276245210728;479.2433333333333;456.3375;562.1455938697318;Ituberá, BA;-13.7360764;-39.1481058
183;BA;Jacobina;493.1421374045801;509.8327480916031;514.71961414791;480.68006430868166;618.5801526717557;Jacobina, BA;-11.1851561;-40.5112434
184;BA;Jaguaquara;476.70057581573894;489.4452975047985;491.5919551934827;468.60947046843177;591.5930902111324;Jaguaquara, BA;-13.5294974;-39.9693081
185;BA;Jaguarari;469.3865497076024;481.330701754386;485.20848484848483;464.68757575757576;577.2514619883041;Jaguarari, BA;-10.2575875;-40.1944363
186;BA;Jequié;493.0950039968025;506.11159072741805;520.4184518828453;482.03531380753134;646.5147881694644;Jequié, BA;-13.8604033;-40.0719627
187;BA;Jeremoabo;459.0672447013487;473.890366088632;479.37675350701403;452.7142284569138;583.1984585741811;Jeremoabo, BA;-10.0754917;-38.3476326
188;BA;Jiquiriçá;463.1313253012048;476.8686746987952;486.12919254658385;460.3844720496894;568.433734939759;Jiquiriçá, BA;-13.255353;-39.5693044
189;BA;João Dourado;465.4064705882353;480.0070588235294;498.9438095238095;466.4276190476191;602.8823529411765;João Dourado, BA;-11.3483643;-41.6626509
190;BA;Juazeiro;486.5800144560896;500.72930972172026;515.6639629200464;478.0543066821167;603.1080592699675;Juazeiro, BA;-9.4336959;-40.5068201
191;BA;Jussara;463.29247311827953;474.27741935483874;473.03258426966295;462.7898876404495;577.4193548387096;Jussara, BA;-11.0473921;-41.97167
192;BA;Lapão;472.9988970588235;486.04411764705884;497.92500000000007;475.2613636363636;620.9558823529412;Lapão, BA;-11.3827148;-41.833808
193;BA;Lauro de Freitas;514.3962400827871;530.9997240427733;547.7467434328895;502.83155811442964;651.4315281131425;Lauro de Freitas, BA;-12.89242;-38.3127691
194;BA;Livramento de Nossa Senhora;496.278073089701;518.8906976744187;537.9324278438031;492.5682512733447;663.5880398671096;Livramento de Nossa Senhora, BA;-13.6505468;-41.8412103
195;BA;Luís Eduardo Magalhães;494.4011305241521;510.25632065775955;523.1551835853132;490.8236501079914;624.48098663926;Luís Eduardo Magalhães, BA;-12.0869117;-45.7834163
196;BA;Macaúbas;485.43695652173915;508.08586956521737;520.3486529318542;483.9613312202852;680.8385093167702;Macaúbas, BA;-13.0174846;-42.6882221
197;BA;Maracás;478.27886710239653;489.4461873638344;499.4739234449761;466.8906698564593;590.4139433551198;Maracás, BA;-13.4408898;-40.433052
198;BA;Maragogipe;462.3588;480.1904;493.5725806451613;454.0185483870968;580.16;Maragogipe, BA;-12.7766206;-38.9174729
199;BA;Mata de São João;489.5651282051282;493.5820512820513;495.18548387096774;468.3532258064516;591.7948717948718;Mata de São João, BA;-12.530685;-38.300898
200;BA;Medeiros Neto;470.31709844559583;485.3932642487046;491.7044198895028;467.6348066298342;578.7564766839379;Medeiros Neto, BA;-17.3714581;-40.2224736
201;BA;Miguel Calmon;466.10718685831625;481.617659137577;492.4199570815451;464.5667381974249;582.4229979466119;Miguel Calmon, BA;-11.4309436;-40.5976501
202;BA;Milagres;468.0890243902439;478.64146341463413;484.61392405063293;460.4067510548523;571.4634146341464;Milagres, BA;-12.864635;-39.861092
203;BA;Monte Santo;462.89407894736837;480.98125;484.5083916083916;456.13251748251747;571.9078947368421;Monte Santo, BA;-10.4382898;-39.3304065
204;BA;Morro do Chapéu;467.43012820512826;484.69262820512824;488.2043189368771;456.63471760797336;580.4487179487179;Morro do Chapéu, BA;-11.5500293;-41.1570248
205;BA;Mucuri;490.65209125475286;505.1015209125476;536.9647773279352;485.2983805668016;621.3688212927757;Mucuri, BA;-18.0787487;-39.5470583
206;BA;Muritiba;491.89906976744186;510.42651162790696;518.0602870813398;486.87224880382774;633.953488372093;Muritiba, BA;-12.624266;-38.9885844
207;BA;Mutuípe;463.53729838709677;473.44032258064516;486.38619246861924;460.71108786610876;597.0564516129032;Mutuípe, BA;-13.2282298;-39.5060149
208;BA;Nazaré;471.7557009345794;485.5284112149533;489.4309941520468;460.2247563352826;568.4485981308411;Nazaré, BA;-13.0345586;-39.0062515
209;BA;Nova Viçosa;466.23875598086124;479.1354066985646;496.67537688442206;456.7492462311558;582.200956937799;Nova Viçosa, BA;-17.8907712;-39.3725471
210;BA;Oliveira dos Brejinhos;461.9793650793651;476.97063492063495;503.2965217391304;464.7130434782609;602.8571428571429;Oliveira dos Brejinhos, BA;-12.3193308;-42.8914271
211;BA;Palmas de Monte Alto;474.79322916666666;495.81145833333335;497.76684210526315;472.1405263157895;614.5833333333334;Palmas de Monte Alto, BA;-14.2636093;-43.1649976
212;BA;Paramirim;468.86062322946174;495.3024079320113;512.1113372093023;475.0841569767442;620.7648725212465;Paramirim, BA;-13.4437218;-42.2419768
213;BA;Paratinga;450.77534883720926;464.0181395348837;473.9743842364532;457.0049261083744;571.8139534883721;Paratinga, BA;-12.692459;-43.1805318
214;BA;Paripiranga;472.670458135861;493.08246445497633;500.5764415156508;474.46886326194397;622.0537124802528;Paripiranga, BA;-10.6828923;-37.8621523
215;BA;Paulo Afonso;486.8165024630542;503.1050492610837;518.0697224015494;476.06223369916074;616.5270935960591;Paulo Afonso, BA;-9.3991006;-38.226711
216;BA;Pilão Arcado;454.47345679012346;466.55;488.8411764705882;451.7052287581699;573.2098765432099;Pilão Arcado, BA;-10.0004334;-42.4793189
217;BA;Pindobaçu;461.67575757575753;473.4246212121212;485.56666666666666;459.0558232931727;580.0757575757576;Pindobaçu, BA;-10.7439121;-40.3619457
218;BA;Pojuca;493.8095238095238;505.3175983436853;512.3665226781858;479.90215982721384;620.0414078674949;Pojuca, BA;-12.4260268;-38.3266573
219;BA;Porto Seguro;499.47574978577546;512.5656383890317;518.1620055197792;486.99070837166516;591.9280205655527;Porto Seguro, BA;-16.443473;-39.064251
220;BA;Poções;469.3939045936396;481.70318021201416;491.7102968460111;462.25018552875696;584.3816254416961;Poções, BA;-14.5274879;-40.3665326
221;BA;Prado;484.5551181102362;498.3031496062992;510.0629166666667;473.165;599.9212598425197;Prado, BA;-17.336357;-39.222721
222;BA;Presidente Dutra;476.3167938931298;492.1160305343511;511.3276422764228;469.0528455284553;623.6641221374045;Presidente Dutra, BA;-11.2959181;-41.9871566
223;BA;Presidente Tancredo Neves;476.504845814978;494.44977973568285;497.9377880184332;469.31336405529953;629.0748898678414;Presidente Tancredo Neves, BA;-13.4556558;-39.4212197
224;BA;Remanso;476.2046575342466;494.23232876712325;515.2818713450292;475.9038011695907;611.7260273972603;Remanso, BA;-9.6179416;-42.0830557
225;BA;Riacho de Santana;475.08817829457365;501.48740310077517;513.6193293885601;479.8575936883629;642.5581395348837;Riacho de Santana, BA;-13.6100985;-42.9355254
226;BA;Riachão das Neves;466.52526315789476;471.8315789473684;476.83085106382975;464.09574468085106;598.3157894736842;Riachão das Neves, BA;-11.7481049;-44.9109851
227;BA;Riachão do Jacuípe;481.76109958506225;499.1247925311203;512.1408096280088;477.0195842450766;596.5560165975104;Riachão do Jacuípe, BA;-11.8071084;-39.3816843
228;BA;Ribeira do Pombal;485.2171728971963;501.64077102803736;507.2635593220339;471.3009685230024;604.4626168224299;Ribeira do Pombal, BA;-10.837299;-38.538152
229;BA;Rio Real;479.4071593533487;496.5568129330254;499.39975728155343;467.0019417475728;628.7759815242495;Rio Real, BA;-11.4869788;-37.9317491
230;BA;Rio de Contas;470.1133779264214;491.4056856187291;506.35448275862063;464.67344827586203;617.4581939799331;Rio de Contas, BA;-13.5803333;-41.8112152
231;BA;Ruy Barbosa;469.97900552486186;483.408103130755;494.95119047619045;463.155753968254;550.902394106814;Ruy Barbosa, BA;-12.2856669;-40.4958361
232;BA;Salvador;513.6832185003299;530.2742725207066;539.7664537970301;497.98595060398554;642.012753793154;Salvador, BA;-12.9822499;-38.4812772
233;BA;Santa Maria da Vitória;477.44842105263155;499.2098245614035;515.6424354243543;478.9448339483395;606.9824561403509;Santa Maria da Vitória, BA;-13.3901477;-44.2013167
234;BA;Santa Rita de Cássia;447.4311594202899;465.25917874396134;480.4559701492537;451.9278606965174;560.5797101449275;Santa Rita de Cássia, BA;-11.0013969;-44.5209684
235;BA;Santaluz;468.0398568019093;491.1427207637231;496.4573604060914;461.02360406091367;574.7494033412888;Santaluz, BA;-11.2505314;-39.3746617
236;BA;Santana;470.2650793650794;484.3663492063492;495.80781758957653;471.71107491856674;608.1269841269841;Santana, BA;-12.979217;-44.05064
237;BA;Santo Amaro;471.59904000000006;479.67456;482.77483221476507;458.0545302013423;554.944;Santo Amaro, BA;-12.5519686;-38.7060448
238;BA;Santo Antônio de Jesus;487.4739854318418;503.11914672216443;509.7734615384615;476.3958241758242;606.5868886576483;Santo Antônio de Jesus, BA;-12.9689361;-39.260914
239;BA;Santo Estêvão;460.62102496714846;473.36885676741133;481.967527173913;454.40285326086956;573.4822601839685;Santo Estêvão, BA;-12.4340621;-39.2556115
240;BA;Sapeaçu;453.3313253012048;469.9689759036145;484.7916408668731;456.8990712074303;553.3734939759037;Sapeaçu, BA;-12.7294438;-39.1862263
241;BA;Seabra;479.9525790349418;496.5249584026622;509.8584192439862;470.8201030927835;624.9584026622297;Seabra, BA;-12.4172071;-41.772051
242;BA;Senhor do Bonfim;474.1559301625527;488.76044551475013;504.35544239338003;475.4894334818587;591.6195063214931;Senhor do Bonfim, BA;-10.4602509;-40.189151
243;BA;Sento Sé;446.62017543859645;467.9587719298246;476.4140186915888;441.7514018691589;564.0350877192982;Sento Sé, BA;-9.7406436;-41.8830056
244;BA;Serra Dourada;455.9197628458498;479.62411067193676;496.5921810699588;466.4699588477366;592.5691699604743;Serra Dourada, BA;-12.758418;-43.9500907
245;BA;Serra do Ramalho;457.9879310344827;479.56149425287356;489.0813253012048;466.7807228915663;601.0344827586207;Serra do Ramalho, BA;-13.5442363;-43.5773151
246;BA;Serrinha;476.5664900662252;492.3747682119205;501.8831676136364;473.4122869318182;586.2781456953643;Serrinha, BA;-11.66199;-39.0034021
247;BA;Simões Filho;488.668487394958;501.18970588235294;508.31145717463846;474.30166852057846;594.3277310924369;Simões Filho, BA;-12.7867839;-38.4030365
248;BA;Sobradinho;476.6336099585062;481.6871369294606;505.0559471365639;463.27709251101317;552.6970954356847;Sobradinho, BA;-9.469775;-40.7957473
249;BA;São Felipe;466.21902834008097;488.0748987854251;480.4447257383966;459.62320675105485;583.9676113360324;São Felipe, BA;-12.8413439;-39.0942048
250;BA;São Francisco do Conde;455.87487437185933;470.1412060301508;472.8903743315508;452.8181818181818;526.2311557788945;São Francisco do Conde, BA;-12.628108;-38.6811326
251;BA;São Félix;456.7752941176471;460.49176470588236;454.48214285714283;443.30833333333334;521.8823529411765;São Félix, BA;-12.6069891;-38.9695574
252;BA;São Gabriel;488.6296296296296;505.8067901234568;523.672077922078;481.01038961038967;624.320987654321;São Gabriel, BA;-11.2281863;-41.8768254
253;BA;São Gonçalo dos Campos;462.34570765661255;477.91948955916473;484.7612048192771;465.0631325301205;565.1972157772622;São Gonçalo dos Campos, BA;-12.4339991;-38.9488082
254;BA;São Sebastião do Passé;489.4953642384106;500.9953642384106;496.7328519855596;468.6129963898917;586.4238410596026;São Sebastião do Passé, BA;-12.5177926;-38.4921566
255;BA;Teixeira de Freitas;496.61643002028393;514.1897903989181;523.4020363636364;481.5300363636364;633.1034482758621;Teixeira de Freitas, BA;-17.5376644;-39.7458096
256;BA;Tucano;490.75113122171945;504.6531674208145;522.5263285024155;483.5345410628019;609.0497737556561;Tucano, BA;-10.963517;-38.785957
257;BA;Uauá;482.3057268722467;502.0136563876652;497.5948837209302;468.72697674418606;575.8590308370044;Uauá, BA;-9.8384079;-39.4793914
258;BA;Ubaitaba;460.18652482269505;476.11536643026;478.9223350253807;455.92893401015226;572.387706855792;Ubaitaba, BA;-14.3117771;-39.3226605
259;BA;Ubaíra;467.2663865546218;483.5878151260504;488.2068085106383;469.1676595744681;574.6218487394958;Ubaíra, BA;-13.2616682;-39.6612866
260;BA;Uibaí;496.5445086705202;515.3618497109827;534.6512195121951;487.8701219512195;647.2832369942197;Uibaí, BA;-11.3349074;-42.1305245
261;BA;Umburanas;450.4848484848485;451.4143939393939;467.8853448275862;442.3775862068966;545.7575757575758;Umburanas, BA;-10.728752;-41.3220445
262;BA;Una;478.20633802816906;485.8647887323944;483.7480916030534;469.89312977099235;551.4084507042254;Una, BA;-15.2724926;-39.246885384186854
263;BA;Urandi;483.2630057803468;491.5346820809249;511.92670807453413;487.78136645962735;624.6242774566474;Urandi, BA;-14.7680766;-42.6573988
264;BA;Valente;475.21932773109245;488.69390756302516;500.7452272727273;469.84499999999997;599.7899159663865;Valente, BA;-11.4127335;-39.4627304
265;BA;Valença;490.09520361990946;505.13665158371043;507.4867172675522;479.8801707779886;609.8099547511313;Valença, BA;-13.3723582;-39.0694243
266;BA;Vera Cruz;473.5058252427184;487.047572815534;482.34983164983163;457.4154882154882;584.9838187702265;Vera Cruz, BA;-12.9608153;-38.6099216
267;BA;Vitória da Conquista;508.1286231884058;523.7950655624569;541.2919942039485;493.9628328201413;646.1249137336093;Vitória da Conquista, BA;-14.8567487;-40.8414804
268;BA;Xique-Xique;460.2209737827715;475.0355805243446;488.7602766798419;453.903557312253;563.183520599251;Xique-Xique, BA;-10.8217193;-42.7265689
269;CE;Acarape;472.618320610687;481.274427480916;487.7404761904762;464.38730158730164;576.9465648854962;Acarape, CE;-4.2237866;-38.7071663
270;CE;Acaraú;466.3231900452489;468.49920814479634;497.71142191142195;452.56946386946385;547.1945701357466;Acaraú, CE;-2.8869514;-40.1194713
271;CE;Acopiara;465.00190615835777;474.38372434017595;495.654347826087;453.17142857142863;518.3870967741935;Acopiara, CE;-6.0936464;-39.4543204
272;CE;Alto Santo;464.03361344537814;468.63361344537816;484.78035714285716;446.06964285714287;479.4117647058824;Alto Santo, CE;-5.5190371;-38.2719351
273;CE;Amontada;446.2903930131004;452.8215429403203;477.14251207729467;439.58727858293076;460.34934497816596;Amontada, CE;-3.3634586;-39.8284791
274;CE;Aquiraz;486.0410540915395;492.4119278779473;504.7997122302158;466.2425899280575;590.5409153952843;Aquiraz, CE;-3.9063117;-38.387504
275;CE;Aracati;477.2325903151422;486.16318216756343;503.2503987240829;463.04521531100477;555.5880092236741;Aracati, CE;-4.558259;-37.767894
276;CE;Aracoiaba;466.78816964285716;473.3314732142857;487.8002331002331;452.9538461538462;554.4642857142857;Aracoiaba, CE;-4.3702577;-38.8084313
277;CE;Araripe;474.01545667447306;481.02622950819676;508.3695090439276;467.7625322997416;594.0983606557377;Araripe, CE;-7.212861;-40.1359222
278;CE;Aratuba;463.7936170212766;470.58;488.468778280543;452.92986425339365;499.5744680851064;Aratuba, CE;-4.4195958;-39.0463737
279;CE;Assaré;465.32620087336244;476.54847161572053;491.458041958042;452.418648018648;513.5371179039302;Assaré, CE;-6.8746791;-39.8741385
280;CE;Aurora;472.7039215686275;485.8330882352941;504.3200507614213;460.4068527918781;647.7941176470588;Aurora, CE;-6.9426019;-38.9693765
281;CE;Banabuiú;475.58684210526314;480.73526315789474;492.32983425414363;456.44806629834255;534.421052631579;Banabuiú, CE;-5.3046404;-38.919766
282;CE;Barbalha;498.13149522799574;514.4905620360552;529.8296909492274;493.1401766004415;646.9989395546129;Barbalha, CE;-7.3121067;-39.3036427
283;CE;Barreira;475.27908745247146;479.61825095057037;503.46890756302525;463.3672268907563;549.8859315589353;Barreira, CE;-4.2883361;-38.641094
284;CE;Barro;478.7682926829268;493.9769647696477;516.0419718309859;470.1315492957747;633.1165311653117;Barro, CE;-7.1713587;-38.7742136
285;CE;Barroquinha;464.2676258992806;480.10395683453237;486.0252747252747;447.7560439560439;532.7338129496403;Barroquinha, CE;-3.0200371;-41.1339229
286;CE;Baturité;474.43425345043914;481.72346298619823;492.36985769728335;457.64708926261324;579.8745294855709;Baturité, CE;-4.3290203;-38.8821055
287;CE;Beberibe;475.9300859598854;483.4138968481376;489.36700288184437;453.3974063400576;546.5329512893983;Beberibe, CE;-4.1810469;-38.1298101
288;CE;Bela Cruz;474.2655976676385;474.01778425655976;501.03625;466.1903125;531.8950437317784;Bela Cruz, CE;-3.0529129;-40.167582
289;CE;Boa Viagem;465.1306666666667;473.6305185185185;491.61829855537724;453.3322632423756;507.52592592592595;Boa Viagem, CE;-5.1261877;-39.7300055
290;CE;Brejo Santo;480.5198384201077;496.4017055655296;519.0750702905342;475.72549203373944;623.8061041292639;Brejo Santo, CE;-7.4909841;-38.9859152
291;CE;Camocim;487.75268935236005;490.40021953896814;506.10175849941385;463.00668229777256;549.3962678375411;Camocim, CE;-2.9009918;-40.8427389
292;CE;Campos Sales;464.2918962722852;474.8886547811993;482.6671186440678;455.1010169491525;539.870340356564;Campos Sales, CE;-7.0750814;-40.3830178
293;CE;Canindé;485.11613459879203;493.3597929249353;512.3122109158187;463.62969472710455;596.7040552200173;Canindé, CE;-4.3547946;-39.3108516
294;CE;Caridade;465.8230769230769;467.5824933687003;489.08375350140057;449.7386554621849;566.8965517241379;Caridade, CE;-4.2316487;-39.1946515
295;CE;Caririaçu;477.33763919821826;490.2256124721603;508.3225581395349;467.8525581395349;611.9376391982182;Caririaçu, CE;-7.0417053;-39.2835527
296;CE;Cariré;483.04726989079563;488.14399375975034;511.6886914378029;464.88513731825526;553.1669266770671;Cariré, CE;-3.948584;-40.476028
297;CE;Cascavel;487.0017772511848;495.0555687203792;505.98125770653513;468.44167694204685;605.9004739336493;Cascavel, CE;-4.129666;-38.241178
298;CE;Caucaia;487.54530085959885;499.181547277937;509.7161486898232;469.19914686166976;578.9971346704871;Caucaia, CE;-3.7300563;-38.6593082
299;CE;Cedro;464.58250652741515;464.3052219321149;475.3355013550135;454.95718157181574;523.0809399477807;Cedro, CE;-6.6065382;-39.0599487
300;CE;Chaval;459.2650717703349;476.26985645933013;480.0864077669903;452.4121359223301;519.0430622009569;Chaval, CE;-3.0339874;-41.2438452
301;CE;Coreaú;479.7843558282209;481.90368098159513;526.0271844660194;464.5928802588997;607.9141104294479;Coreaú, CE;-3.5519794;-40.6528409
302;CE;Crateús;479.3668585526316;492.0802631578947;508.7131849315069;467.7210616438356;593.2401315789474;Crateús, CE;-5.1782451;-40.6696545
303;CE;Crato;497.9253460620525;514.7136038186158;529.0477203647416;489.61757852077;629.708830548926;Crato, CE;-7.2369112;-39.4149236
304;CE;Cruz;473.90554089709764;483.6071240105541;513.59375;458.2404891304348;514.4591029023746;Cruz, CE;-2.918128;-40.175981
305;CE;Eusébio;504.39310344827584;516.4860501567398;540.1461912479741;489.94586709886545;617.6489028213166;Eusébio, CE;-3.8889838;-38.4546585
306;CE;Farias Brito;472.4225913621263;489.9378737541528;503.1526690391459;465.49537366548043;565.6478405315614;Farias Brito, CE;-6.9272823;-39.5714222
307;CE;Forquilha;479.0229007633588;481.45063613231554;511.10459459459463;461.08000000000004;560.2035623409669;Forquilha, CE;-3.799447;-40.263405
308;CE;Fortaleza;512.0154535607907;529.7492634714324;551.8758869683875;498.3627046850125;636.3108583807203;Fortaleza, CE;-3.7304512;-38.5217989
309;CE;Granja;454.39929906542056;463.2827102803738;478.96315136476426;446.2301488833747;506.5420560747664;Granja, CE;-3.1212057;-40.8284124
310;CE;Guaraciaba do Norte;473.8006749156355;487.56692913385825;506.3628841607565;463.01016548463355;606.9741282339708;Guaraciaba do Norte, CE;-4.1632924;-40.7495985
311;CE;Hidrolândia;482.6935222672065;485.448987854251;505.9017021276596;474.23319148936173;591.9838056680162;Hidrolândia, CE;-4.4084745;-40.4065472
312;CE;Horizonte;497.97406060606056;507.4549090909091;513.9305941845764;468.99721871049303;592.0969696969697;Horizonte, CE;-4.0964618;-38.4965574
313;CE;Ibiapina;476.2682080924855;484.92052023121386;503.36687306501545;471.840866873065;568.5549132947976;Ibiapina, CE;-3.9228792;-40.8890296
314;CE;Icapuí;472.7203947368421;478.73059210526316;499.7925423728813;459.9291525423729;561.6447368421053;Icapuí, CE;-4.7158474;-37.3535365
315;CE;Icó;469.50620957309184;478.1534282018111;493.14796747967483;456.49959349593496;551.6688227684347;Icó, CE;-6.4003992;-38.8575946
316;CE;Iguatu;490.767053513862;499.375112830432;523.7051194539249;478.66136518771333;605.9058671824629;Iguatu, CE;-6.361934;-39.2972233
317;CE;Independência;460.59842519685037;471.814435695538;493.04081081081085;450.5413513513513;519.9475065616798;Independência, CE;-5.3958538;-40.3108896
318;CE;Ipu;469.8228155339806;484.063713592233;500.539358974359;462.88884615384615;562.0388349514564;Ipu, CE;-4.3239824;-40.7097463
319;CE;Ipueiras;461.59662921348314;478.6323970037453;485.7112204724409;455.3996062992126;561.87265917603;Ipueiras, CE;-4.5427141;-40.7168461
320;CE;Iracema;469.82916666666665;474.9317708333333;489.8864864864865;449.3562162162162;540.0;Iracema, CE;-5.8106219;-38.3028294
321;CE;Irauçuba;472.4413680781759;484.4390879478827;508.37526881720436;461.44480286738354;571.3355048859935;Irauçuba, CE;-3.7466828;-39.7840904
322;CE;Itaitinga;474.8423149905123;479.43206831119545;495.78771929824563;455.44015594541906;532.3719165085389;Itaitinga, CE;-3.965768;-38.529763
323;CE;Itapajé;474.55538990825687;489.2157110091743;510.75078597339785;460.01898428053204;566.1467889908257;Itapajé, CE;-3.6841324;-39.5851265
324;CE;Itapipoca;464.1161438728565;472.7447929736512;492.0257477243172;453.99501517121803;532.8900041823505;Itapipoca, CE;-3.499329;-39.583571
325;CE;Itarema;459.39833887043187;473.2838870431894;495.0798245614035;447.8356140350877;527.7076411960132;Itarema, CE;-2.9224684;-39.9152184
326;CE;Itatira;441.26726726726724;455.2687687687688;470.2830065359477;444.1251633986928;489.54954954954957;Itatira, CE;-4.5305504;-39.6210481
327;CE;Jaguaretama;459.14576271186445;469.8073446327683;483.84671052631575;452.8539473684211;453.6723163841808;Jaguaretama, CE;-5.6092417;-38.7630077
328;CE;Jaguaribe;469.76916932907346;478.8456869009585;498.68710217755444;458.73400335008375;543.035143769968;Jaguaribe, CE;-5.8854585;-38.6212957
329;CE;Jaguaruana;478.7503424657534;489.81198630136987;507.0102150537635;470.13154121863806;581.472602739726;Jaguaruana, CE;-4.831508;-37.780997
330;CE;Jardim;471.57418879056047;486.92492625368726;501.97596302003086;464.3069337442219;569.1150442477876;Jardim, CE;-7.5838966;-39.279713
331;CE;Jijoca de Jericoacoara;478.09999999999997;479.9284722222222;516.4130909090909;462.6149090909091;558.75;Jijoca de Jericoacoara, CE;-2.8986278;-40.4506081
332;CE;Juazeiro do Norte;502.14146567717995;519.5375695732838;541.0343619887337;493.0283859906931;644.4944341372913;Juazeiro do Norte, CE;-7.2153453;-39.3153336
333;CE;Jucás;461.60900735294115;470.4810661764706;498.4967741935484;457.0951612903226;525.8088235294117;Jucás, CE;-6.5224934;-39.5247183
334;CE;Lavras da Mangabeira;462.7763948497854;471.8525751072961;490.46281755196304;456.53163972286376;563.7339055793991;Lavras da Mangabeira, CE;-6.7533331;-38.96538686618186
335;CE;Limoeiro do Norte;498.7545217391304;513.8998260869565;539.6399820305481;489.81401617250674;649.2347826086957;Limoeiro do Norte, CE;-5.1455607;-38.0984936
336;CE;Madalena;468.9425641025641;486.67846153846153;491.37717391304346;452.4266304347826;559.4871794871794;Madalena, CE;-4.8542961;-39.5766436
337;CE;Maracanaú;498.87368421052633;507.86223684210523;518.0489044289044;475.3346853146853;606.9473684210526;Maracanaú, CE;-3.8779438;-38.6247697
338;CE;Maranguape;480.154305200341;490.51082693947143;504.1182982616652;465.9545288197621;563.768115942029;Maranguape, CE;-3.8922967;-38.6835427
339;CE;Marco;452.3291044776119;458.0094527363184;483.91818181818184;442.1051948051948;460.3731343283582;Marco, CE;-3.1221945;-40.1514585
340;CE;Massapê;469.1763106796116;476.9716504854369;492.1270707070707;453.28161616161617;549.242718446602;Massapê, CE;-3.5239058;-40.3423107
341;CE;Mauriti;463.6373697916667;477.364453125;488.072275862069;461.58565517241374;566.9791666666666;Mauriti, CE;-7.3870095;-38.7737751
342;CE;Milagres;480.6965156794425;498.7092334494773;502.3663602941176;476.74319852941176;623.205574912892;Milagres, CE;-7.3106846;-38.9447146
343;CE;Missão Velha;467.03264033264037;485.87193347193346;501.7366445916115;466.15518763796905;596.9646569646569;Missão Velha, CE;-7.248491;-39.1434843
344;CE;Mombaça;481.34447004608296;491.1947004608295;516.4545012165449;465.56058394160584;588.9861751152074;Mombaça, CE;-5.7450899;-39.6293519
345;CE;Monsenhor Tabosa;461.21506276150626;468.1635983263599;478.83437499999997;449.3589285714285;517.907949790795;Monsenhor Tabosa, CE;-4.7879512;-40.063949
346;CE;Morada Nova;486.9358166189112;497.3416905444126;522.2954198473283;475.88580152671756;617.3638968481375;Morada Nova, CE;-5.1076699;-38.3727852
347;CE;Mulungu;454.5622950819672;476.2983606557377;471.3254335260116;450.5109826589595;558.1420765027323;Mulungu, CE;-5.888418;-39.384758
348;CE;Nova Olinda;468.3628242074928;480.19221902017296;496.3739393939394;458.4448484848484;550.4899135446686;Nova Olinda, CE;-7.0934174;-39.6789815
349;CE;Nova Russas;463.86639053254436;475.1815384615385;487.9607099143207;454.1899632802938;516.4497041420118;Nova Russas, CE;-4.7051681;-40.565519
350;CE;Novo Oriente;475.09445727482677;485.50346420323325;502.04240362811794;456.1310657596372;571.5011547344111;Novo Oriente, CE;-5.5350339;-40.7748902
351;CE;Ocara;473.6647928994083;482.17189349112425;488.5123028391167;454.99369085173504;562.7810650887574;Ocara, CE;-4.4910653;-38.5964829
352;CE;Orós;458.68835341365457;462.3666666666667;472.05637860082305;444.9411522633745;471.16465863453817;Orós, CE;-6.2427541;-38.9141151
353;CE;Pacajus;488.94537401574803;500.369094488189;508.3526859504133;468.0057851239669;591.003937007874;Pacajus, CE;-4.171073;-38.464988
354;CE;Pacatuba;479.1457002457002;487.3581081081081;498.59099337748347;460.1516556291391;562.8009828009828;Pacatuba, CE;-3.9841;-38.6180383
355;CE;Pacoti;463.44048672566373;468.8725663716814;473.10883054892605;445.5832935560859;547.787610619469;Pacoti, CE;-4.2253561;-38.9208352
356;CE;Paracuru;474.29542203147355;481.5616595135908;491.8703703703704;459.6389629629629;525.1216022889843;Paracuru, CE;-3.41436;-39.030028
357;CE;Paraipaba;469.49227871939735;477.1937853107344;506.76200787401575;458.7907480314961;543.2015065913371;Paraipaba, CE;-3.437987;-39.147868
358;CE;Parambu;463.97115384615387;476.81506410256407;480.8367892976589;457.4227424749164;502.1794871794872;Parambu, CE;-6.2123856;-40.6954982
359;CE;Pedra Branca;458.56545454545454;476.9005454545454;491.8885880077369;455.6400386847195;500.4727272727273;Pedra Branca, CE;-5.455674;-39.7166286
360;CE;Pentecoste;471.2680763983629;482.0291950886767;492.96604046242777;461.2507225433526;527.4761255115961;Pentecoste, CE;-3.7952282;-39.2713219
361;CE;Pindoretama;477.28158995815903;483.9640167364017;501.5853333333333;458.87466666666666;618.9121338912134;Pindoretama, CE;-4.0265183;-38.3066829
362;CE;Porteiras;473.4719298245614;490.2691228070176;511.529889298893;470.18856088560887;602.2456140350877;Porteiras, CE;-7.5341572;-39.1153149
363;CE;Quiterianópolis;459.19428571428574;470.64448979591833;490.38607594936707;454.3611814345992;532.3265306122449;Quiterianópolis, CE;-5.8458117;-40.7021812
364;CE;Quixadá;477.81489361702126;489.7439716312057;503.898569023569;466.5462962962963;531.8518518518518;Quixadá, CE;-4.9706021;-39.0158403
365;CE;Quixeramobim;479.50793969849246;482.8411055276382;505.62516198704105;459.7209503239741;541.1457286432161;Quixeramobim, CE;-5.1983553;-39.2955573
366;CE;Redenção;461.81244444444445;465.278;481.09063926940644;453.0474885844749;569.3777777777777;Redenção, CE;-4.2243979;-38.7278461
367;CE;Russas;503.02384428223843;517.6633819951338;542.140232858991;491.7825355756792;631.7761557177615;Russas, CE;-4.9354279;-37.9783838
368;CE;Santa Quitéria;462.7330508474576;471.59220338983056;492.3129144851658;449.76614310645726;490.6779661016949;Santa Quitéria, CE;-4.3336553;-40.1544913
369;CE;Santana do Acaraú;466.67079831932773;475.5153361344538;494.3947136563877;455.9885462555066;526.7226890756302;Santana do Acaraú, CE;-3.4596492;-40.2090987
370;CE;Santana do Cariri;454.2095238095238;467.6107142857143;493.86;452.3193333333333;547.5;Santana do Cariri, CE;-7.1844749;-39.73683102569594
371;CE;Senador Pompeu;477.6691011235955;490.6317415730337;504.796783625731;462.3733918128655;558.8202247191011;Senador Pompeu, CE;-5.5874386;-39.3730901
372;CE;Sobral;504.5594067563856;515.041636912936;549.6906340057637;488.4555907780979;614.0181268882175;Sobral, CE;-3.6879135;-40.3456372
373;CE;Solonópole;460.992602739726;474.40904109589036;495.1891495601173;451.72668621700876;476.32876712328766;Solonópole, CE;-5.7329092;-39.0098669
374;CE;São Benedito;472.8712454212454;486.2428571428571;503.83071090047395;462.3734597156398;575.3113553113553;São Benedito, CE;-4.0479952;-40.8643488
375;CE;São Gonçalo do Amarante;475.92071269487747;478.09443207126947;499.84608187134506;455.9037426900585;547.8841870824053;São Gonçalo do Amarante, CE;-3.5929237;-39.03653251900945
376;CE;Tabuleiro do Norte;492.6651869158879;499.6757009345795;527.2470731707317;481.0148780487805;593.6448598130842;Tabuleiro do Norte, CE;-5.2440865;-38.1284605
377;CE;Tamboril;472.8037533512064;479.75201072386056;488.06424581005587;450.5977653631285;547.7211796246648;Tamboril, CE;-4.8330075;-40.3210323
378;CE;Tauá;485.62152046783626;494.23602339181286;515.6139303482587;467.7070895522388;576.561403508772;Tauá, CE;-6.0031372;-40.2947268
379;CE;Tejuçuoca;457.0018518518518;467.26222222222225;480.51553030303035;448.3068181818182;525.1851851851852;Tejuçuoca, CE;-3.9884273;-39.5797395
380;CE;Tianguá;478.8947859922179;490.4775875486381;511.78175842235004;466.75250616269517;574.6147859922179;Tianguá, CE;-3.7307332;-41.0004019
381;CE;Trairi;460.27371273712737;466.3626016260162;489.53830409356726;449.2083333333333;517.1815718157181;Trairi, CE;-3.2777494;-39.2680677
382;CE;Ubajara;481.74937388193206;492.479427549195;509.43152985074624;465.7136194029851;561.5384615384615;Ubajara, CE;-3.8534468;-40.9185642
383;CE;Uruburetama;460.195924308588;463.262154294032;478.9512232415902;444.79556574923544;495.28384279475983;Uruburetama, CE;-3.6235302;-39.5050697
384;CE;Uruoca;461.50034013605443;471.0268707482993;479.15347222222226;452.22847222222225;484.6938775510204;Uruoca, CE;-3.3147591;-40.558957
385;CE;Varjota;475.83472727272726;482.3650909090909;510.9393881453155;463.3151051625239;529.3090909090909;Varjota, CE;-4.1958345;-40.4735305
386;CE;Viçosa do Ceará;470.8680778032037;477.74004576659036;493.35806060606063;458.46412121212126;562.8146453089245;Viçosa do Ceará, CE;-3.5667684;-41.091504
387;CE;Várzea Alegre;474.011797752809;487.16348314606745;511.39183976261126;462.77804154302675;598.314606741573;Várzea Alegre, CE;-6.7936089;-39.2989333
388;DF;Brasília;524.5177563717732;538.4005403045353;555.0169437505384;509.29210957016113;634.6749986355946;Brasília, DF;-15.7934036;-47.8823172
389;ES;Afonso Cláudio;499.2025495750708;520.713597733711;539.0875739644971;492.5434911242604;635.7507082152974;Afonso Cláudio, ES;-20.077841;-41.12606
390;ES;Alegre;499.342429022082;512.4619873817035;536.7842880523732;501.7399345335515;612.1766561514196;Alegre, ES;-20.7625787;-41.5318886
391;ES;Anchieta;510.390625;527.0928571428572;545.1854430379747;502.5664556962025;636.2797619047619;Anchieta, ES;-20.8057672;-40.6454564
392;ES;Aracruz;512.2674788135594;530.3889830508475;559.0709862385321;507.6175458715596;637.2033898305085;Aracruz, ES;-19.8245218;-40.2735025
393;ES;Baixo Guandu;503.1538732394367;526.9200704225352;549.7833333333333;499.0488636363636;623.169014084507;Baixo Guandu, ES;-19.5138322;-41.0182089
394;ES;Barra de São Francisco;485.3848416289593;501.12986425339363;522.652606635071;477.521327014218;595.8371040723982;Barra de São Francisco, ES;-18.7570902;-40.8916119
395;ES;Brejetuba;486.14040404040406;503.82222222222225;515.8402173913043;482.34891304347826;609.0909090909091;Brejetuba, ES;-20.1465817;-41.2902303
396;ES;Cachoeiro de Itapemirim;507.88768050541523;522.9840703971119;553.6025118483412;502.30952606635077;654.2960288808664;Cachoeiro de Itapemirim, ES;-20.848084;-41.11129
397;ES;Cariacica;503.9706551724138;518.9075172413793;534.9740863787375;490.36710963455147;601.3310344827586;Cariacica, ES;-20.263202;-40.416549
398;ES;Castelo;510.7074498567335;530.9587392550144;556.0402985074627;508.10417910447757;656.0458452722063;Castelo, ES;-20.6034476;-41.2033505
399;ES;Colatina;509.553694874851;525.6100119189512;551.5736409608091;501.968394437421;639.7854588796185;Colatina, ES;-19.5346732;-40.6287836
400;ES;Conceição da Barra;479.3621052631579;488.9068421052632;502.60056497175145;466.98644067796613;557.7894736842105;Conceição da Barra, ES;-18.5841421;-39.7371844
401;ES;Domingos Martins;502.4210638297872;524.8197872340426;549.0923076923077;504.498021978022;648.7234042553191;Domingos Martins, ES;-20.3646483;-40.6585797
402;ES;Ecoporanga;485.5685;505.05699999999996;514.868253968254;475.74074074074076;599.7;Ecoporanga, ES;-18.3720918;-40.8321351
403;ES;Guarapari;516.4475524475524;528.9643356643356;550.2269016697588;505.63320964749533;629.8251748251748;Guarapari, ES;-20.6718755;-40.4984617
404;ES;Guaçuí;498.0543209876543;520.1061728395061;549.8390306122449;501.8015306122449;612.9382716049382;Guaçuí, ES;-20.7726679;-41.6750657
405;ES;Itapemirim;481.9512987012987;493.6993506493506;511.18615916955014;475.94740484429065;590.2597402597403;Itapemirim, ES;-21.0105534;-40.8351239
406;ES;Iúna;497.88667601683034;519.8774193548387;544.5130177514793;499.06760355029587;620.0561009817671;Iúna, ES;-20.3427029;-41.5360386
407;ES;Jaguaré;493.85550239234453;505.2650717703349;533.585641025641;492.5938461538462;609.665071770335;Jaguaré, ES;-18.9029244;-40.0712037
408;ES;João Neiva;523.4029702970297;538.9351485148514;576.2452631578948;521.7336842105262;677.3267326732673;João Neiva, ES;-19.756346;-40.3848345
409;ES;Linhares;505.86256038647343;521.9013285024155;545.8534659820282;499.9593709884467;637.8260869565217;Linhares, ES;-19.3816944;-40.0612213
410;ES;Marataízes;495.42320675105486;506.5983122362869;531.058836689038;480.1818791946308;615.8227848101266;Marataízes, ES;-21.0443673;-40.8272204
411;ES;Mimoso do Sul;494.54432624113474;503.836524822695;534.8768656716418;491.1899253731343;608.3687943262412;Mimoso do Sul, ES;-21.0628724;-41.3640478
412;ES;Montanha;490.24670846394986;502.61253918495294;519.0367003367003;480.1;619.8746081504702;Montanha, ES;-18.1256742;-40.366795
413;ES;Nova Venécia;504.2872756933115;524.1230016313214;557.8652849740932;510.5082901554404;624.9592169657423;Nova Venécia, ES;-18.7063456;-40.3969786
414;ES;Pedro Canário;476.86892655367234;485.99943502824857;506.4449101796407;479.7101796407186;609.8305084745763;Pedro Canário, ES;-18.2998272;-39.9558844
415;ES;Pinheiros;491.31703296703296;509.3269230769231;525.6708571428571;474.4268571428571;586.2637362637363;Pinheiros, ES;-18.4127047;-40.217534
416;ES;Santa Maria de Jetibá;500.9839002267574;529.2077097505669;547.4038095238095;504.0328571428571;615.9183673469388;Santa Maria de Jetibá, ES;-20.025296;-40.743931
417;ES;Santa Teresa;512.103325415677;539.0254156769596;562.6597530864198;515.0212345679013;651.4489311163895;Santa Teresa, ES;-19.936339;-40.597945
418;ES;Serra;508.6674589561382;525.0520215633422;541.0352601156069;495.6575669994745;621.2790982602303;Serra, ES;39.6838793;-0.4288545
419;ES;Sooretama;489.1138157894737;493.34144736842103;509.60357142857146;475.425;601.0526315789474;Sooretama, ES;-19.1918129;-40.1037067
420;ES;São Gabriel da Palha;495.2745192307693;516.3117788461539;531.4608585858585;490.2588383838384;625.0961538461538;São Gabriel da Palha, ES;-19.0148349;-40.539464
421;ES;São Mateus;500.85123309466985;517.8268894192522;537.5186554621848;492.8805882352941;616.2450278440732;São Mateus, ES;-18.7156342;-39.8482555
422;ES;Venda Nova do Imigrante;515.4246956521739;537.1852173913044;572.6682395644283;519.7341197822142;650.8521739130434;Venda Nova do Imigrante, ES;-20.3325787;-41.1295842
423;ES;Viana;497.2163481953291;509.0562632696391;524.4133949191686;485.81177829099306;587.8131634819533;Viana, ES;42.5154725;-2.3713437
424;ES;Vila Velha;528.4733672603901;547.7908608990671;572.8970840867993;521.9546112115733;658.6386768447837;Vila Velha, ES;-20.3297037;-40.2920174
425;ES;Vitória;536.1665686068502;557.71136793444;589.5875388716127;531.8823856063972;684.4631225047278;Vitória, ES;-20.3200917;-40.3376682
426;ES;Água Doce do Norte;480.92254901960786;496.21078431372547;508.3265306122449;464.83673469387753;565.8823529411765;Água Doce do Norte, ES;-18.54822;-40.979012
427;GO;Acreúna;474.4132575757576;487.18295454545455;494.60537190082647;459.0082644628099;538.8636363636364;Acreúna, GO;-17.3959899;-50.3749031
428;GO;Alexânia;478.14948453608247;498.5577319587629;492.28977272727275;468.5943181818182;565.360824742268;Alexânia, GO;-16.0834049;-48.5077803
429;GO;Alvorada do Norte;462.68111111111114;473.69555555555553;483.17514792899414;454.492899408284;521.4444444444445;Alvorada do Norte, GO;-14.483911;-46.4959897
430;GO;Anápolis;510.2348536274926;527.0956300381841;545.648842487517;499.63699500680895;655.5876113703861;Anápolis, GO;-16.3332828;-48.9525756
431;GO;Aparecida de Goiânia;494.6419208010924;510.55147928994086;515.4806038647343;480.19625603864733;614.8293126991351;Aparecida de Goiânia, GO;-16.8226769;-49.2452546
432;GO;Aragarças;476.0603092783505;483.3025773195876;500.30427807486626;466.4866310160428;567.2164948453608;Aragarças, GO;-15.8957166;-52.2514538
433;GO;Bom Jesus de Goiás;486.18341708542715;499.23467336683416;519.1193181818181;480.29602272727277;561.4070351758794;Bom Jesus de Goiás, GO;-18.2174587;-49.739721
434;GO;Caldas Novas;494.4258503401361;503.8718172983479;516.5547892720306;475.6838122605364;585.7142857142857;Caldas Novas, GO;-17.745;-48.625
435;GO;Campos Belos;449.8496732026144;461.77189542483666;470.1973821989528;444.4446771378708;504.01960784313724;Campos Belos, GO;-13.0349839;-46.768112
436;GO;Catalão;503.8460864120225;522.0344395742017;539.9928477690289;495.38129921259844;640.7764558547276;Catalão, GO;-18.1702546;-47.9447082
437;GO;Ceres;486.45505154639176;500.57804123711344;527.8432967032967;478.6163736263737;613.7731958762887;Ceres, GO;-15.3103568;-49.6032054
438;GO;Cidade Ocidental;482.84351265822784;493.95569620253167;494.7740170940171;464.6974358974359;545.506329113924;Cidade Ocidental, GO;-16.1000758;-47.9445014
439;GO;Cristalina;473.59355608591886;485.6532219570406;499.8127937336814;471.2501305483028;547.63723150358;Cristalina, GO;-16.7680599;-47.6133427
440;GO;Formosa;489.20288335517694;501.7060288335518;511.81902097902093;476.4286013986014;573.3813892529489;Formosa, GO;-15.5492443;-47.3301212
441;GO;Goianira;479.48993288590606;491.498322147651;500.19910714285714;463.79875;578.0872483221476;Goianira, GO;-16.5001973;-49.4254788
442;GO;Goianésia;492.73744769874475;506.4804393305439;529.7671096345515;483.17541528239207;623.347280334728;Goianésia, GO;-15.3118269;-49.1162001
443;GO;Goiatuba;498.253125;514.5585227272727;539.2400630914826;489.4324921135647;618.5227272727273;Goiatuba, GO;-18.0154577;-49.3640591
444;GO;Goiás;487.52941176470586;500.2611111111111;502.75760135135135;472.2731418918919;581.40522875817;Goiás, GO;-15.9408902;-50.1465398
445;GO;Goiânia;521.9318884055797;541.9480925953702;563.0297508114334;514.3076012982934;678.7860606969651;Goiânia, GO;-16.680882;-49.2532691
446;GO;Inhumas;496.63159235668786;515.4501910828026;535.3551816958278;488.25356662180354;643.2356687898089;Inhumas, GO;-16.3610569;-49.500111
447;GO;Ipameri;505.12218309859156;514.4957746478873;529.532967032967;489.53699633699637;630.0704225352113;Ipameri, GO;-17.7215439;-48.158118
448;GO;Iporá;486.58594202898547;502.736231884058;519.8381598793363;479.5850678733032;611.7391304347826;Iporá, GO;-16.4407981;-51.1181188
449;GO;Itaberaí;486.5842803030303;499.16950757575756;524.1866396761134;477.4734817813765;623.2954545454545;Itaberaí, GO;-16.0205509;-49.8060341
450;GO;Itapaci;477.88776595744685;483.45248226950355;497.55486238532114;461.8622018348624;570.6028368794326;Itapaci, GO;-14.9522349;-49.5511221
451;GO;Itapuranga;490.85431472081217;502.8944162436548;518.431926121372;479.87335092348286;635.6852791878173;Itapuranga, GO;-15.5605889;-49.9489571
452;GO;Itumbiara;496.3849100860047;511.37826426896015;531.7969089390142;490.0284043441938;605.8326817826427;Itumbiara, GO;-18.4135862;-49.2172596
453;GO;Jaraguá;480.4639393939394;490.5540909090909;508.1948844884488;474.116501650165;582.5151515151515;Jaraguá, GO;-15.7528866;-49.3344033
454;GO;Jataí;491.5959385290889;506.26004390779366;521.0833912037037;480.33605324074074;597.4423710208562;Jataí, GO;-17.8783829;-51.7204241
455;GO;Jussara;470.49540709812106;481.5814196242171;496.10446428571424;465.66316964285716;566.8893528183717;Jussara, GO;-15.874813;-50.867431
456;GO;Luziânia;490.01802120141343;500.69010600706713;512.507796101949;476.3387556221889;570.190812720848;Luziânia, GO;-16.2535456;-47.9500276
457;GO;Mambaí;454.42317880794695;476.1324503311258;470.221897810219;446.9124087591241;513.5099337748344;Mambaí, GO;-14.4970828;-46.1115108
458;GO;Minaçu;482.5904320987654;485.64629629629627;508.92374581939805;469.51672240802674;601.604938271605;Minaçu, GO;-13.5336413;-48.2184889
459;GO;Mineiros;489.19800703399767;505.857796014068;522.418842364532;484.33571428571423;619.4841735052755;Mineiros, GO;-17.5653879;-52.5536721
460;GO;Morrinhos;492.694623655914;506.52887864823344;528.7389423076922;483.46875;634.531490015361;Morrinhos, GO;-17.7333689;-49.105908
461;GO;Nerópolis;487.33673469387753;509.2781632653061;516.3061403508772;476.9425438596491;612.1224489795918;Nerópolis, GO;-16.4069816;-49.219438
462;GO;Niquelândia;490.22570621468924;494.29604519774006;515.2565088757397;472.79615384615386;604.5197740112994;Niquelândia, GO;-14.4648655;-48.4572244
463;GO;Novo Gama;483.13606837606835;491.0683760683761;488.49726277372264;459.10638686131387;569.5726495726495;Novo Gama, GO;-16.0496528;-48.0304615
464;GO;Padre Bernardo;463.3226600985222;470.6251231527093;495.35641025641024;449.22153846153844;533.4975369458128;Padre Bernardo, GO;-15.1676411;-48.2840561
465;GO;Piracanjuba;488.49227642276423;503.7857723577236;516.9178879310344;480.7;600.7317073170732;Piracanjuba, GO;-17.3020379;-49.0170101
466;GO;Pirenópolis;482.30767123287666;493.3449315068493;508.21260997067446;466.72844574780055;590.9589041095891;Pirenópolis, GO;-15.8501619;-48.957317
467;GO;Pires do Rio;493.51217838765007;505.9363636363637;523.776731793961;484.8227353463588;606.6552315608919;Pires do Rio, GO;-17.3006277;-48.2793037
468;GO;Planaltina;478.5951871657754;488.0935828877005;487.4627272727273;457.26397727272723;537.1336898395722;Planaltina, GO;-15.4571536;-47.6089024
469;GO;Porangatu;468.47334200260076;478.28218465539663;492.54165497896213;461.9854137447405;559.4538361508453;Porangatu, GO;-13.444663;-49.1423569
470;GO;Posse;460.3120786516854;469.12331460674153;485.9975867269985;454.0904977375566;540.0280898876405;Posse, GO;-14.0835852;-46.3563185
471;GO;Quirinópolis;492.2368421052632;497.3667182662539;515.231045751634;473.6343137254902;604.7987616099072;Quirinópolis, GO;-18.4471859;-50.4546981
472;GO;Rio Verde;496.5901597114889;509.45012879958784;529.2575928008999;487.0517997750281;609.2632663575476;Rio Verde, GO;-17.7921255;-50.9191219
473;GO;Rubiataba;497.76140350877193;505.4845614035088;530.2191335740073;485.66534296028874;645.1228070175439;Rubiataba, GO;-15.1629793;-49.8005102
474;GO;Santa Helena de Goiás;475.4651515151515;481.19935064935066;498.9739234449761;459.04521531100477;541.3419913419914;Santa Helena de Goiás, GO;-17.8115199;-50.5976641
475;GO;Santo Antônio do Descoberto;481.9212189616253;492.89142212189614;493.83190476190475;461.8511904761905;577.0654627539503;Santo Antônio do Descoberto, GO;-15.9465415;-48.2616527
476;GO;Senador Canedo;488.30300187617263;502.719512195122;504.9907048008172;470.1144024514811;597.0356472795497;Senador Canedo, GO;-16.7013233;-49.0914921
477;GO;Silvânia;489.60991379310343;503.0006465517241;523.42343387471;483.8672853828306;593.5775862068965;Silvânia, GO;-16.6599718;-48.608326
478;GO;São Luís de Montes Belos;477.66306954436453;488.2503597122302;505.59021329987456;467.8459222082811;590.6714628297362;São Luís de Montes Belos, GO;-16.5210639;-50.3726281
479;GO;São Miguel do Araguaia;472.4736292428198;485.657180156658;498.20280112044816;462.07030812324933;604.6997389033943;São Miguel do Araguaia, GO;-13.2726442;-50.1627219
480;GO;Trindade;482.9896177980605;499.13274386765545;508.18441320293397;472.323533007335;585.3394181403308;Trindade, GO;-16.6549924;-49.4876203
481;GO;Uruaçu;479.4501818181818;489.64763636363637;508.92362924281986;467.86462140992165;564.5090909090909;Uruaçu, GO;-14.5244164;-49.1510022
482;GO;Valparaíso de Goiás;490.75639503507824;499.2318942255801;506.40247838616716;468.74097982708935;575.6287101996762;Valparaíso de Goiás, GO;-16.0686394;-47.9764907
483;GO;Águas Lindas de Goiás;478.6774910394265;490.8709677419355;488.7826923076923;461.7019230769231;559.3548387096774;Águas Lindas de Goiás, GO;-15.7392283;-48.2793357
484;MA;Alcântara;452.5934426229508;458.1573770491803;475.98141592920354;442.5221238938053;541.4754098360655;Alcântara, MA;-2.4084996;-44.4174143
485;MA;Amarante do Maranhão;452.65934065934067;474.1087912087912;483.6599236641221;462.006106870229;586.2271062271062;Amarante do Maranhão, MA;-5.56913;-46.747284
486;MA;Anajatuba;461.424347826087;480.2304347826087;486.2348214285715;460.6375;653.5652173913044;Anajatuba, MA;-3.26441;-44.6179916
487;MA;Araioses;463.65629139072854;489.0701986754967;481.4;462.31103448275866;566.0927152317881;Araioses, MA;-2.890914;-41.904993
488;MA;Arame;436.6264150943397;453.14905660377354;467.9190789473684;442.63157894736844;517.7358490566038;Arame, MA;-4.8858769;-46.0102484
489;MA;Arari;470.1507772020725;479.55751295336785;482.38111510791373;460.91079136690644;571.46804835924;Arari, MA;-3.4547602;-44.7772723
490;MA;Açailândia;474.436191974823;490.8971675845791;500.154309623431;462.73146443514645;598.426435877262;Açailândia, MA;-4.9514278;-47.4844564
491;MA;Bacabal;469.46005988023956;483.63856287425153;491.9726409119696;460.4103229892337;587.0179640718563;Bacabal, MA;-4.2318132;-44.781167
492;MA;Bacuri;441.0046822742475;454.2110367892977;468.25;443.38146853146856;543.8795986622074;Bacuri, MA;-1.728894;-45.1417148
493;MA;Balsas;466.43845080251225;479.16503838101886;497.50308823529406;466.6113235294118;585.1779483600837;Balsas, MA;-7.53214;-46.037163
494;MA;Barra do Corda;468.53196480938414;483.6983870967742;493.55987558320373;461.5153965785381;585.9530791788857;Barra do Corda, MA;-5.496823;-45.248496
495;MA;Barreirinhas;453.4875816993464;469.77167755991286;481.0805164319249;451.31877934272296;556.6013071895425;Barreirinhas, MA;-2.7541271;-42.8259693
496;MA;Barão de Grajaú;459.3172284644195;473.6052434456929;485.39087452471483;456.22471482889733;584.4943820224719;Barão de Grajaú, MA;-6.7542591;-43.0263477
497;MA;Bequimão;450.4209150326797;466.3712418300654;474.0826666666666;447.6726666666666;561.437908496732;Bequimão, MA;-2.4495376;-44.7884889
498;MA;Bom Jardim;459.0436666666667;467.574;481.25531914893617;454.3382978723404;554.4666666666667;Bom Jardim, MA;-3.54129;-45.606004
499;MA;Brejo;446.6596541786743;462.02651296829976;466.96895522388064;448.38358208955225;556.3112391930836;Brejo, MA;-3.6804397;-42.7529313
500;MA;Buriti Bravo;445.53214285714284;456.03714285714284;467.06323529411765;444.04375;557.0714285714286;Buriti Bravo, MA;-5.8391884;-43.8367876
501;MA;Buriticupu;452.75676229508196;465.89528688524587;481.3550321199143;456.9164882226981;534.3852459016393;Buriticupu, MA;-4.3227472;-46.4516989
502;MA;Carolina;465.92112676056337;476.9192488262911;487.3690355329949;461.4269035532995;593.5211267605633;Carolina, MA;35.90503535;-79.04775326525107
503;MA;Carutapera;451.72843137254904;467.42573529411766;474.5900763358778;451.72162849872774;559.0686274509804;Carutapera, MA;-1.2016638;-46.0205618
504;MA;Caxias;467.5766228893058;480.9796998123827;487.76311443177354;464.1901690916241;578.5215759849906;Caxias, MA;-4.8654201;-43.353664
505;MA;Chapadinha;455.2621085594989;474.62933194154493;486.2788732394366;456.41343445287106;581.0020876826723;Chapadinha, MA;-3.7416803;-43.3548006
506;MA;Codó;459.2029490616622;472.6657730116175;476.15488372093023;454.7835348837209;570.9562109025916;Codó, MA;-4.455623;-43.892354
507;MA;Coelho Neto;466.921320754717;478.1632075471698;484.1929824561403;460.8890838206628;591.0188679245283;Coelho Neto, MA;-4.2535154;-43.0149321
508;MA;Colinas;451.6587467362924;467.45378590078326;475.35874316939885;449.05054644808746;555.6657963446476;Colinas, MA;-6.0332631;-44.2528542
509;MA;Coroatá;457.44466019417473;463.24485436893207;484.93064182194615;450.62815734989647;592.8932038834952;Coroatá, MA;-4.1282283;-44.1360269
510;MA;Cururupu;455.73916083916083;473.0797202797202;470.72158273381297;451.45000000000005;589.1608391608391;Cururupu, MA;-1.824255;-44.872996
511;MA;Dom Pedro;471.5167984189723;484.0096837944664;494.9725050916497;467.0729124236252;609.6837944664031;Dom Pedro, MA;-5.0398278;-44.4385724
512;MA;Esperantinópolis;459.05;469.3914814814815;483.1904214559387;455.72681992337164;603.2592592592592;Esperantinópolis, MA;-4.8751875;-44.8801032
513;MA;Estreito;456.3514285714286;466.9734285714286;486.27872340425535;453.6635258358662;543.8857142857142;Estreito, MA;-6.5583016;-47.4432212
514;MA;Formosa da Serra Negra;442.58383233532936;461.7547904191617;477.9934579439252;451.1249221183801;563.4131736526946;Formosa da Serra Negra, MA;-6.4437601;-46.1905789
515;MA;Governador Nunes Freire;442.6693181818182;453.39261363636365;460.75174418604655;439.4162790697675;532.1590909090909;Governador Nunes Freire, MA;-2.1303959;-45.8900498
516;MA;Grajaú;451.21994382022467;468.4460674157303;474.6796101949025;454.4611694152923;561.4325842696629;Grajaú, MA;-5.8154034;-46.1361454
517;MA;Humberto de Campos;438.31388888888887;460.03888888888895;463.20375939849623;432.6812030075188;553.75;Humberto de Campos, MA;-2.598282;-43.464877
518;MA;Icatu;444.3594458438287;459.8007556675063;466.64526315789476;446.9565789473684;564.3324937027708;Icatu, MA;-2.772065;-44.050061
519;MA;Imperatriz;490.1970338983051;506.9617873651772;524.9937984496124;485.58357813137496;642.68875192604;Imperatriz, MA;-5.5269279;-47.478115
520;MA;Itapecuru Mirim;452.4138632162662;466.16654343807767;473.5745631067961;448.5229126213592;534.1219963031423;Itapecuru Mirim, MA;-3.3973569;-44.3560724
521;MA;Itinga do Maranhão;463.42964824120605;478.59346733668343;482.96042780748667;454.16898395721927;586.1306532663317;Itinga do Maranhão, MA;-4.452925;-47.5253727
522;MA;João Lisboa;459.20933333333335;473.61276190476195;477.1362348178137;457.48927125506077;590.2095238095238;João Lisboa, MA;-5.44363;-47.406388
523;MA;Lago da Pedra;465.2471947194719;481.3714521452145;487.06256410256407;457.8035897435897;598.3168316831683;Lago da Pedra, MA;-4.5627272;-45.1298628
524;MA;Maracaçumé;449.4966463414634;466.2789634146341;480.247619047619;447.807619047619;580.1219512195122;Maracaçumé, MA;-2.049177;-45.958734
525;MA;Matinha;446.7151202749141;460.80687285223365;462.7345323741007;442.3744604316547;539.3814432989691;Matinha, MA;-3.102212;-45.032208
526;MA;Mirinzal;442.19565217391306;464.888768115942;458.5817843866171;435.85315985130114;522.3913043478261;Mirinzal, MA;-2.0664539;-44.7837348
527;MA;Montes Altos;455.945041322314;474.0347107438016;468.87890295358653;457.69620253164555;553.0578512396694;Montes Altos, MA;-5.8316731;-47.0658003
528;MA;Parnarama;446.62384428223845;456.50802919708025;463.65974683544306;441.13594936708864;577.2262773722628;Parnarama, MA;-5.6823685;-43.0895346
529;MA;Paço do Lumiar;477.31634559252774;491.85796847635726;498.70129709697346;464.11358863495985;598.2720373613544;Paço do Lumiar, MA;-2.5329055;-44.1591965
530;MA;Pedreiras;474.07435028248585;486.8040677966101;500.47131050767416;464.9866587957497;630.6892655367232;Pedreiras, MA;-4.5687989;-44.6003029
531;MA;Penalva;458.0628318584071;476.20442477876105;470.9054545454545;448.0536363636364;534.3362831858407;Penalva, MA;-3.2881215;-45.1742086
532;MA;Pindaré-Mirim;469.87480620155037;480.3914728682171;491.02572614107885;470.14813278008296;588.062015503876;Pindaré-Mirim, MA;-3.6124457;-45.3404235
533;MA;Pinheiro;465.00091673032847;477.57097020626435;480.2359809372518;455.93367752184275;578.0748663101605;Pinheiro, MA;-2.5270459;-45.0866463
534;MA;Pio XII;445.1100456621005;469.1036529680365;463.55118483412326;447.24360189573457;546.8493150684932;Pio XII, MA;-3.8911223;-45.1710284
535;MA;Porto Franco;456.2175675675676;474.33127413127414;476.80300601202407;452.1743486973948;567.5675675675676;Porto Franco, MA;-6.34149;-47.396188
536;MA;Presidente Dutra;463.8331325301205;480.0927710843373;493.73196850393697;463.97905511811024;598.2530120481928;Presidente Dutra, MA;-5.289801;-44.49498
537;MA;Raposa;459.62398753894075;475.5320872274143;472.16339869281046;452.9362745098039;547.227414330218;Raposa, MA;-2.4459454;-44.1193757
538;MA;Rosário;454.22047781569967;465.40699658703073;470.24545454545455;448.92727272727274;558.2593856655291;Rosário, MA;-2.9405903;-44.2491088
539;MA;Santa Helena;450.81396103896105;462.53863636363633;470.69118644067794;450.3572881355932;586.038961038961;Santa Helena, MA;-2.234387;-45.3002279
540;MA;Santa Inês;471.5381343283582;480.6304477611941;496.3847512038523;463.7825842696629;595.4328358208955;Santa Inês, MA;-3.6647821;-45.3826869
541;MA;Santa Luzia;459.8586288416076;472.3456264775414;490.629;451.55475;545.2009456264775;Santa Luzia, MA;-3.9633675;-45.6637956
542;MA;Santa Luzia do Paruá;451.4090395480226;464.94322033898305;475.4853372434018;452.07243401759536;573.4463276836158;Santa Luzia do Paruá, MA;-2.5440662;-45.775757
543;MA;Santa Rita;462.546017699115;475.77566371681417;472.92;452.033023255814;574.1592920353983;Santa Rita, MA;-3.1411146;-44.3270285
544;MA;São Bento;443.8004672897196;453.81658878504675;467.47295285359803;447.53225806451616;531.2616822429907;São Bento, MA;-2.6999089;-44.8331254
545;MA;São Bernardo;442.725625;454.99137499999995;465.3370466321244;444.9108808290156;539.9;São Bernardo, MA;-3.3650267;-42.4224814
546;MA;São Domingos do Maranhão;462.16818181818184;482.1045454545454;490.0936123348018;456.48370044052865;592.7272727272727;São Domingos do Maranhão, MA;-5.5799743;-44.3841617
547;MA;São José de Ribamar;468.84915540540544;481.3223817567567;482.3135791366906;455.58588129496405;570.8952702702703;São José de Ribamar, MA;-2.5609115;-44.0559509
548;MA;São João dos Patos;451.78556701030925;465.85108820160366;479.3816009557945;451.56893667861414;567.2852233676975;São João dos Patos, MA;-6.4934;-43.703623
549;MA;São Luís;492.72144599910376;509.3072250161828;518.0847761037325;480.15990865662235;626.8167106507992;São Luís, MA;-2.5295265;-44.2963942
550;MA;São Mateus do Maranhão;452.4376373626373;465.157967032967;479.3378612716763;452.8901734104046;572.5274725274726;São Mateus do Maranhão, MA;-4.0289169;-44.4667342
551;MA;São Raimundo das Mangabeiras;441.9728723404255;465.29441489361704;470.7532967032967;450.131043956044;554.6276595744681;São Raimundo das Mangabeiras, MA;-7.023608;-45.4769436
552;MA;São Vicente Ferrer;436.6703007518797;443.3778195488722;455.1763565891473;435.61937984496126;507.29323308270676;São Vicente Ferrer, MA;-2.8927449;-44.8803633
553;MA;Timbiras;447.50481099656355;461.82577319587625;471.05765124555165;449.22811387900356;541.5807560137457;Timbiras, MA;-4.2551056;-43.9386212
554;MA;Timon;475.47225058004636;486.4554524361949;499.0222222222222;464.99463937621834;616.1020881670534;Timon, MA;-5.1023325;-42.8449518
555;MA;Tuntum;467.21607142857147;482.26250000000005;508.8297468354431;461.96898734177216;589.6428571428571;Tuntum, MA;-5.2630885;-44.6448502
556;MA;Turiaçu;442.13286713286715;451.70349650349647;454.91603053435114;432.5557251908397;533.7062937062936;Turiaçu, MA;-1.6710652;-45.3684095
557;MA;Tutóia;460.5671532846715;475.5566909975669;475.260465116279;461.9294573643411;570.316301703163;Tutóia, MA;-2.761413;-42.275531
558;MA;Urbano Santos;441.0737003058104;459.7067278287462;467.15628930817616;445.5833333333333;551.8042813455658;Urbano Santos, MA;-3.2036233;-43.3929106
559;MA;Vargem Grande;444.1286069651742;461.45099502487557;466.46072351421185;441.6121447028424;544.3283582089553;Vargem Grande, MA;-3.5443611;-43.9149128
560;MA;Viana;451.37914691943126;463.2789099526067;473.3285714285714;448.01829573934833;568.8625592417062;Viana, MA;-3.2099341;-45.0002456
561;MA;Vitorino Freire;458.9552894211577;461.4714570858284;483.2185031185031;453.63950103950106;615.0099800399202;Vitorino Freire, MA;-4.2885303;-45.2417582
562;MA;Zé Doca;462.19523809523815;472.4137254901961;481.566369047619;453.7279761904762;538.655462184874;Zé Doca, MA;-3.270145;-45.655344
563;MG;Abaeté;511.64803921568625;523.2747549019608;554.3838874680307;499.2969309462916;645.9313725490196;Abaeté, MG;-19.1566833;-45.4481213
564;MG;Aimorés;514.5408637873754;526.4222591362127;549.2375438596491;499.0691228070176;619.8006644518273;Aimorés, MG;-19.4917754;-41.0615603
565;MG;Alfenas;515.9091447925487;532.9931414055885;562.7758310871518;508.7567834681043;664.1320914479255;Alfenas, MG;-21.4297405;-45.9479419
566;MG;Almenara;491.89241877256325;499.30342960288806;522.4353383458646;477.6458646616542;585.5595667870036;Almenara, MG;-16.1740678;-40.6904907
567;MG;Alpinópolis;500.23494252873564;518.259540229885;553.6756626506024;497.5785542168675;660.9655172413793;Alpinópolis, MG;-20.863611;-46.387777
568;MG;Alvinópolis;499.35854922279793;517.1264248704663;543.1596774193548;486.3989247311828;629.5336787564767;Alvinópolis, MG;-20.1105199;-43.0601805
569;MG;Além Paraíba;514.5661670235546;531.3852248394004;560.3334075723831;504.09755011135854;670.5353319057816;Além Paraíba, MG;-21.8760576;-42.6810473
570;MG;Andradas;518.6303249097473;532.8797833935018;559.7811320754716;510.92037735849055;660.2888086642599;Andradas, MG;-22.0680484;-46.5688976
571;MG;Andrelândia;490.6561038961039;507.41480519480524;526.0546703296703;481.4337912087912;614.4415584415584;Andrelândia, MG;-21.739722;-44.308889
572;MG;Araguari;522.3161818181819;540.4745454545455;561.5557692307692;511.5943269230769;651.4727272727273;Araguari, MG;-18.6511256;-48.1933764
573;MG;Araxá;529.0976791120081;544.744702320888;583.4614978902954;520.7029535864979;685.1261352169525;Araxá, MG;-19.5928536;-46.940241
574;MG;Araçuaí;492.7362953692115;511.34818523153945;525.3107235142119;482.34586563307494;623.9799749687108;Araçuaí, MG;-16.8484451;-42.0661868
575;MG;Arcos;526.5632478632479;541.4529914529915;586.1194029850747;509.5217910447761;673.6182336182336;Arcos, MG;-20.282223;-45.539444
576;MG;Areado;510.5730458221024;527.3827493261456;553.6624641833811;498.1358166189112;635.9568733153639;Areado, MG;-21.3582771;-46.1476688
577;MG;Arinos;476.14150417827295;485.97771587743733;502.6863501483679;471.8629080118694;569.91643454039;Arinos, MG;-15.917223;-46.106111
578;MG;Baependi;510.06470588235294;523.4348039215686;553.3397959183674;494.1142857142857;663.6274509803922;Baependi, MG;-21.959162;-44.8899249
579;MG;Bambuí;516.717667844523;533.4003533568904;554.9316363636364;502.37636363636364;662.8975265017668;Bambuí, MG;-20.0131996;-45.9777034
580;MG;Barbacena;525.034503950834;545.347322212467;578.2565801668211;514.2651992585728;660.6409130816505;Barbacena, MG;-21.2254524;-43.7735087
581;MG;Barão de Cocais;523.0906504065041;538.0329268292683;577.7481012658227;513.4818565400843;661.4634146341464;Barão de Cocais, MG;-19.9452437;-43.4870298
582;MG;Belo Horizonte;545.2286729940812;567.7422547543165;600.0273280762883;534.0173775903173;687.9291142787098;Belo Horizonte, MG;-19.9227318;-43.9450948
583;MG;Belo Oriente;502.69202898550725;510.3579710144927;541.4901515151515;487.89621212121216;661.8840579710145;Belo Oriente, MG;-19.2232523;-42.4807033
584;MG;Betim;520.6497465359919;536.963906725245;554.3458865248226;500.937304964539;635.140250084488;Betim, MG;-19.968056;-44.198333
585;MG;Boa Esperança;501.83734087694484;514.6325318246111;549.4150584795321;492.9086257309942;631.6831683168317;Boa Esperança, MG;-21.0901253;-45.5660195
586;MG;Bocaiúva;496.338115942029;507.6394202898551;527.547754491018;485.33338323353297;635.4782608695652;Bocaiúva, MG;-17.1160208;-43.8122678
587;MG;Bom Despacho;539.9889447236181;558.2123115577889;593.6778364116095;527.811345646438;688.8442211055276;Bom Despacho, MG;-19.7375242;-45.2517288
588;MG;Bom Sucesso;493.02019543973944;514.3508143322476;532.6114864864865;485.01587837837843;641.6938110749186;Bom Sucesso, MG;-21.0323516;-44.7598082
589;MG;Brasilândia de Minas;473.8872246696035;480.784140969163;494.9632075471698;471.80518867924525;564.7577092511013;Brasilândia de Minas, MG;-17.0096409;-46.0087622
590;MG;Brasília de Minas;494.2142857142857;507.9675;523.4295238095239;477.46590476190477;593.6071428571429;Brasília de Minas, MG;-16.2075114;-44.430559
591;MG;Brumadinho;516.6878854625551;533.5182819383259;549.8417808219178;498.7509132420091;637.5330396475771;Brumadinho, MG;-20.143611;-44.2
592;MG;Buritis;483.5230088495575;494.20353982300884;514.4611872146119;470.1753424657534;589.2035398230089;Buritis, MG;-15.621389;-46.423889
593;MG;Caeté;522.577694235589;536.937343358396;564.4005194805195;507.83506493506496;667.7694235588972;Caeté, MG;-19.897777;-43.670278
594;MG;Cambuí;509.3412568306011;528.581693989071;555.8103746397695;503.8971181556196;641.7486338797814;Cambuí, MG;-22.6122501;-46.0572137
595;MG;Campo Belo;513.4209370424597;532.1216691068814;567.7496183206107;504.71541984732823;658.0380673499268;Campo Belo, MG;-20.8975;-45.277223
596;MG;Campos Altos;501.4326530612245;505.01428571428573;534.2083333333334;484.128125;647.1428571428571;Campos Altos, MG;-19.696389;-46.171389
597;MG;Campos Gerais;492.2451990632319;506.1665105386417;535.4878109452736;486.72910447761194;621.4988290398127;Campos Gerais, MG;-21.2333342;-45.7584127
598;MG;Capelinha;512.3998127340824;530.4310861423221;544.2707269155206;499.7994106090373;646.1048689138577;Capelinha, MG;-17.693889;-42.518611
599;MG;Carangola;497.9332880434783;518.2125;538.3189606741573;489.3210674157303;642.6630434782609;Carangola, MG;-20.733056;-42.029445
600;MG;Caratinga;512.1556428571429;526.4512142857143;555.7594235033259;498.41012564671104;650.0714285714286;Caratinga, MG;-19.7900887;-42.140533
601;MG;Carlos Chagas;509.4960526315789;513.5500000000001;535.0152777777778;481.7715277777778;622.1052631578947;Carlos Chagas, MG;-21.744351;-43.3908675
602;MG;Carmo do Paranaíba;508.5130434782609;518.527950310559;559.3501628664495;501.1299674267101;645.4037267080745;Carmo do Paranaíba, MG;-18.9992327;-46.306916
603;MG;Carmésia;479.74655172413793;486.85689655172416;523.5385964912281;462.87894736842105;590.6896551724138;Carmésia, MG;-19.0854535;-43.1392003
604;MG;Cataguases;528.3921779141104;546.4518404907975;579.4955766192733;520.8494470774092;693.7423312883435;Cataguases, MG;-21.387426;-42.6957219
605;MG;Caxambu;509.7225048923679;529.7309197651664;562.3210843373495;501.35301204819274;658.4344422700588;Caxambu, MG;-21.9755872;-44.9311403
606;MG;Cláudio;517.9791569086651;533.559718969555;557.9825242718447;499.11674757281554;653.2552693208431;Cláudio, MG;-20.4448485;-44.7655217
607;MG;Conceição do Mato Dentro;496.4282442748092;514.0809160305344;536.9561264822134;484.4189723320158;619.8473282442748;Conceição do Mato Dentro, MG;-19.037222;-43.425278
608;MG;Congonhas;518.227652173913;534.0855652173914;561.2312617702448;500.03163841807907;650.0521739130435;Congonhas, MG;-20.5015168;-43.8564586
609;MG;Conselheiro Lafaiete;535.2206700379267;555.5783185840708;584.3888015717092;522.856712508186;685.2212389380531;Conselheiro Lafaiete, MG;-20.6596107;-43.785743
610;MG;Conselheiro Pena;502.74949999999995;515.0535;535.9938144329897;486.1386597938144;607.2;Conselheiro Pena, MG;-19.1720883;-41.471995
611;MG;Contagem;530.3151052337493;550.6818029428199;572.594986344128;516.9203667577058;653.7940026075619;Contagem, MG;-19.9132749;-44.0840953
612;MG;Coração de Jesus;486.3066666666667;495.4929166666667;497.77478632478636;472.87948717948717;600.6666666666666;Coração de Jesus, MG;-16.6888187;-44.3577401
613;MG;Corinto;500.6591836734694;504.52653061224487;534.9716577540107;489.02887700534757;591.734693877551;Corinto, MG;-18.363056;-44.456111
614;MG;Coromandel;510.50479704797044;524.8147601476014;544.0696850393701;499.76929133858266;635.5719557195572;Coromandel, MG;-18.473889;-47.200278
615;MG;Coronel Fabriciano;525.4143552311435;543.138807785888;577.3616071428571;515.5168367346939;699.5133819951338;Coronel Fabriciano, MG;-19.5200067;-42.6282686
616;MG;Curvelo;512.140960163432;532.0878447395302;553.5142250530786;504.2110403397027;657.8140960163432;Curvelo, MG;-18.7571926;-44.4305993
617;MG;Diamantina;500.89677419354837;516.1461221688401;529.9758620689655;493.83053160919536;636.0054907343857;Diamantina, MG;-18.2440862;-43.6006487
618;MG;Divinópolis;525.9947002318648;547.6197085127525;584.395385149202;517.5499306037474;679.7350115932428;Divinópolis, MG;-20.1597921;-44.8739341
619;MG;Engenheiro Caldas;498.41615384615386;508.1446153846154;546.1645161290322;496.47258064516126;607.8461538461538;Engenheiro Caldas, MG;-19.201389;-42.046944
620;MG;Entre Rios de Minas;513.6335978835979;533.1060846560847;562.7387186629527;508.7894150417827;643.9153439153439;Entre Rios de Minas, MG;-20.670834;-44.065556
621;MG;Ervália;515.0136;542.0504;559.5900826446281;508.0380165289256;663.52;Ervália, MG;-20.8400156;-42.653352
622;MG;Esmeraldas;500.78017621145375;517.0519823788546;525.0299065420561;489.9588785046729;610.7488986784141;Esmeraldas, MG;-19.7613111;-44.3145945
623;MG;Espinosa;490.08649517684887;506.4369774919614;531.1609836065574;484.2075409836065;625.3376205787781;Espinosa, MG;-14.9232007;-42.8093337
624;MG;Extrema;519.2664206642066;541.1468634686346;560.5736220472442;506.92952755905515;632.2509225092251;Extrema, MG;-22.8549109;-46.3190079
625;MG;Formiga;529.9985401459854;552.7505474452555;596.8382239382239;519.4932432432432;706.7153284671533;Formiga, MG;-20.4648425;-45.4266753
626;MG;Francisco Sá;476.42193308550185;486.19702602230484;507.5916030534351;470.9522900763359;641.3382899628252;Francisco Sá, MG;-16.4777211;-43.4942587
627;MG;Frutal;491.775;509.6477739726027;525.6098720292504;482.47879341864723;597.568493150685;Frutal, MG;-20.0220064;-48.9280076
628;MG;Governador Valadares;521.7725138121547;534.9724447513812;568.1984853948792;506.5678687342228;667.4378453038674;Governador Valadares, MG;-18.8539497;-41.9458753
629;MG;Guanhães;507.2026373626374;528.1397802197803;556.2943946188341;500.8688340807175;657.4505494505495;Guanhães, MG;-18.7753627;-42.9340634
630;MG;Guaxupé;527.7263440860215;549.2141577060931;584.3569811320755;519.8826415094339;650.9677419354839;Guaxupé, MG;-21.3087615;-46.7190609
631;MG;Ibirité;511.34080145719486;532.067941712204;544.856500956023;496.4310707456979;617.9963570127504;Ibirité, MG;-20.0214251;-44.0621506
632;MG;Igarapé;516.3110169491525;527.4497175141244;551.4808383233533;497.69970059880245;630.5649717514125;Igarapé, MG;-20.068789;-44.3017439
633;MG;Inconfidentes;518.9417910447761;545.0033582089552;571.138671875;509.137890625;672.9104477611941;Inconfidentes, MG;-22.3168866;-46.3279182
634;MG;Inhapim;502.757614213198;519.5319796954315;544.8115789473684;493.01736842105265;633.6548223350254;Inhapim, MG;-19.5501834;-42.1209879
635;MG;Ipatinga;534.8064559515803;555.3174512441157;593.6982673267327;527.0340876944837;707.5521183591123;Ipatinga, MG;-19.4777807;-42.5270802
636;MG;Itabira;516.8872895622895;537.9002525252525;565.2406719717064;504.4310344827586;662.3569023569023;Itabira, MG;-19.6186264;-43.2267011
637;MG;Itabirito;528.0622988505747;546.3822988505747;589.6148936170213;519.6503546099291;678.2988505747127;Itabirito, MG;-20.2519724;-43.8029171
638;MG;Itacarambi;461.52834008097165;463.80404858299596;483.5274336283186;454.6942477876106;550.1214574898786;Itacarambi, MG;-15.1;-44.092222
639;MG;Itajubá;522.6428102788409;540.9413340623291;577.6863400576369;512.6560806916427;673.1765992345544;Itajubá, MG;-22.4238234;-45.4524156
640;MG;Itamarandiba;508.208040201005;522.3781407035176;547.580890052356;486.8324607329843;617.286432160804;Itamarandiba, MG;-17.8575;-42.859722
641;MG;Itaobim;488.15373831775696;506.7717289719626;519.6117359413204;479.57921760391196;593.6448598130842;Itaobim, MG;-16.5614934;-41.502275
642;MG;Itaúna;539.641806451613;556.6467096774194;600.9576662143826;526.8265943012212;686.8387096774194;Itaúna, MG;-20.075556;-44.576389
643;MG;Ituiutaba;495.69662356321834;512.3385057471264;530.6082638362396;489.07899924184983;589.3821839080459;Ituiutaba, MG;-18.9691887;-49.4639335
644;MG;Iturama;485.6720173535792;495.4327548806941;518.3514739229025;474.94897959183675;592.7982646420825;Iturama, MG;-19.7272733;-50.193488
645;MG;Jacinto;469.98359375;474.83828125;502.5107438016529;457.13305785123964;585.625;Jacinto, MG;-16.1460987;-40.2948032
646;MG;Janaúba;499.1780099502488;515.6515422885572;538.7314285714286;490.9046560846561;648.2189054726368;Janaúba, MG;-15.8019291;-43.309246
647;MG;Januária;476.6944841675179;487.8365679264556;503.7754797441365;472.17974413646056;574.1573033707865;Januária, MG;-15.4875;-44.361111
648;MG;Jaíba;470.9859205776173;488.3400722021661;511.4376425855514;470.42661596958175;579.4223826714801;Jaíba, MG;-15.3373744;-43.6734439
649;MG;Jequitinhonha;492.7909090909091;500.0545454545454;517.8470297029703;469.0059405940594;590.8133971291866;Jequitinhonha, MG;-16.433333;-41.003056
650;MG;João Monlevade;524.4884939195509;548.5912067352666;581.7889432485323;522.1995107632094;681.4031805425632;João Monlevade, MG;-19.809444;-43.173334
651;MG;João Pinheiro;517.745871559633;531.1186544342507;552.9327922077922;506.2655844155844;655.1070336391438;João Pinheiro, MG;-17.742777;-46.175278
652;MG;Juatuba;512.509756097561;531.8654471544716;553.379295154185;506.631718061674;620.4065040650406;Juatuba, MG;-19.954001;-44.3407921
653;MG;Juiz de Fora;533.853961885657;552.8533266466065;580.0313752832491;519.7055255359944;670.9428284854564;Juiz de Fora, MG;-21.7609533;-43.3501129
654;MG;Ladainha;497.4919191919192;503.8272727272727;519.7054347826087;469.66521739130434;609.6969696969697;Ladainha, MG;-17.6265078;-41.7385789
655;MG;Lagoa Santa;534.5632625994696;551.1689655172414;582.9356449375866;519.7234396671289;672.3076923076923;Lagoa Santa, MG;-19.6357376;-43.8966132
656;MG;Lagoa da Prata;523.7337115072934;540.784116693679;577.3257191201353;510.49255499153975;701.3614262560778;Lagoa da Prata, MG;-20.022778;-45.5440462
657;MG;Lambari;512.4294117647058;524.1974789915967;556.3626086956522;499.06260869565216;635.9663865546219;Lambari, MG;-21.9754009;-45.3505415
658;MG;Lavras;517.2619119878605;536.6725341426404;562.1177023498694;507.86182767624024;666.110268082954;Lavras, MG;-21.2425512;-44.9991978
659;MG;Leopoldina;507.8881553398058;526.5974757281554;556.7426229508197;500.03668032786885;641.9417475728155;Leopoldina, MG;-21.5314282;-42.6403534
660;MG;Lima Duarte;505.8930107526882;521.0365591397849;548.9670454545454;494.8698863636364;622.4731182795699;Lima Duarte, MG;-21.842777;-43.792777
661;MG;Lontra;474.12231884057974;491.23246376811596;510.9544891640866;470.0049535603715;610.2608695652174;Lontra, MG;-15.9034782;-44.3030383
662;MG;Luz;516.0861660079051;538.5375494071146;571.4677685950413;515.5198347107438;688.0632411067194;Luz, MG;-19.7871171;-45.6846736
663;MG;Machacalis;474.77387387387387;488.06036036036033;514.9435185185185;455.64722222222224;576.2162162162163;Machacalis, MG;-17.0770336;-40.7187273
664;MG;Machado;510.3732269503546;524.0757092198581;557.7314711359404;503.1301675977654;660.9574468085107;Machado, MG;-21.6762861;-45.9211696
665;MG;Malacacheta;498.16107784431136;511.16586826347304;534.02;486.031875;598.8023952095808;Malacacheta, MG;-17.843055;-42.077778
666;MG;Manga;472.58;483.1476923076923;488.46867469879516;463.97068273092367;568.0769230769231;Manga, MG;-14.7528035;-43.9417044
667;MG;Manhuaçu;502.1278834720571;518.3877526753864;546.8911855990068;495.0001862197393;644.6611177170035;Manhuaçu, MG;-20.2574434;-42.0340769
668;MG;Manhumirim;514.8446428571428;535.375;553.9381132075472;501.2784905660377;635.1428571428571;Manhumirim, MG;-20.3599141;-41.9554606
669;MG;Mantena;510.3166666666667;520.1871794871795;541.3361607142857;487.9419642857143;630.5128205128206;Mantena, MG;-18.7809937;-40.9808279
670;MG;Mariana;516.5842548076923;533.5728365384615;542.8323308270677;498.3070175438597;654.5192307692307;Mariana, MG;-20.3781468;-43.4174862
671;MG;Mateus Leme;525.2137724550898;546.8862275449102;565.345625;511.1675;644.4311377245509;Mateus Leme, MG;-19.986666;-44.428056
672;MG;Matozinhos;509.8773371104816;527.0603399433428;537.9233038348083;492.3091445427728;628.6118980169972;Matozinhos, MG;-19.5576547;-44.0816035
673;MG;Minas Novas;485.168156424581;502.127094972067;516.4068571428571;480.67885714285717;573.7988826815642;Minas Novas, MG;-17.2175833;-42.5943681
674;MG;Monte Azul;479.29278350515466;486.8224226804124;521.7873972602739;470.69342465753425;594.9484536082474;Monte Azul, MG;-15.1531999;-42.8711742
675;MG;Monte Carmelo;500.43606271777;514.8951219512195;539.063752276867;490.33187613843353;615.2961672473867;Monte Carmelo, MG;-18.7260939;-47.4958859
676;MG;Monte Sião;523.8335968379447;532.9754940711462;564.985;503.80791666666664;642.5296442687747;Monte Sião, MG;-22.432778;-46.572778
677;MG;Montes Claros;519.9788390416466;539.315758160476;561.0183604336044;509.9017276422764;676.9930857050973;Montes Claros, MG;-16.7273538;-43.8717676
678;MG;Muriaé;513.2307692307693;526.9603749191984;561.9668932698845;506.15601631543166;675.759534583064;Muriaé, MG;-21.130556;-42.366389
679;MG;Mutum;506.3053140096618;531.6628019323672;559.4798994974874;504.3457286432161;649.1787439613527;Mutum, MG;-19.817223;-41.438333
680;MG;Muzambinho;514.9481735159817;524.2513698630137;563.03125;503.6858173076923;639.5433789954338;Muzambinho, MG;-21.3684325;-46.522317
681;MG;Nanuque;488.0385;501.4225;521.0695417789757;473.4808625336927;593.65;Nanuque, MG;-17.8391113;-40.3537221
